$GPRMC,091118.00,A,5522.04030,N,01025.91080,E,0.357,,071116,,,A*70

$GPVTG,,T,,M,0.357,N,0.661,K,A*23

$GPGGA,091118.00,5522.04030,N,01025.91080,E,1,03,3.60,-0.3,M,43.1,M,,*73

$GPGSA,A,2,22,08,11,,,,,,,,,,3.74,3.60,1.00*0F

$GPGSV,2,1,06,08,72,253,48,11,40,277,45,22,07,216,36,30,01,296,*76

$GPGSV,2,2,06,33,23,210,36,40,11,121,33*7E

$GPGLL,5522.04030,N,01025.91080,E,091118.00,A,A*68

$GPTXT,01,01,02,u-blox ag - www.u-blox.com*50

$GPTXT,01,01,02,HW  UBX-G60xx  00040007 FF7FFFF3p*26

$GPTXT,01,01,02,ROM CORE 6.02 (36023) Oct 15 2009 16:52:08*56

$GPTXT,01,01,02,ANTSUPERV=AC SD PDoS SR*20

$GPTXT,01,01,02,ANTSTATUS=OK*3B

$GPRMC,091119.00,A,5522.04008,N,01025.91074,E,0.231,,071116,,,A*70

$GPVTG,,T,,M,0.231,N,0.427,K,A*22

$GPGGA,091119.00,5522.04008,N,01025.91074,E,1,03,3.60,-0.4,M,43.1,M,,*75

$GPGSA,A,2,22,08,11,,,,,,,,,,3.74,3.60,1.00*0F

$GPGSV,2,1,06,08,72,253,48,11,40,277,45,22,07,216,36,30,01,296,*76

$GPGSV,2,2,06,33,23,210,36,40,11,121,33*7E

$GPGLL,5522.04008,N,01025.91074,E,091119.00,A,A*69

$GPRMC,091120.00,A,5522.03983,N,01025.91082,E,0.418,,071116,,,A*73

$GPVTG,,T,,M,0.418,N,0.773,K,A*2D

$GPGGA,091120.00,5522.03983,N,01025.91082,E,1,03,3.60,-0.4,M,43.1,M,,*7B

$GPGSA,A,2,22,08,11,,,,,,,,,,3.74,3.60,1.00*0F

$GPGSV,2,1,06,08,72,253,48,11,40,277,45,22,07,216,36,30,01,296,*76

$GPGSV,2,2,06,33,23,210,36,40,11,121,33*7E

$GPGLL,5522.03983,N,01025.91082,E,091120.00,A,A*67

$GPRMC,091121.00,A,5522.03965,N,01025.91098,E,0.256,,071116,,,A*7D

$GPVTG,,T,,M,0.256,N,0.474,K,A*25

$GPGGA,091121.00,5522.03965,N,01025.91098,E,1,03,3.60,-0.5,M,43.1,M,,*78

$GPGSA,A,2,22,08,11,,,,,,,,,,3.74,3.60,1.00*0F

$GPGSV,2,1,06,08,72,253,48,11,40,277,45,22,07,216,36,30,01,296,*76

$GPGSV,2,2,06,33,23,210,36,40,11,121,33*7E

$GPGLL,5522.03965,N,01025.91098,E,091121.00,A,A*65

$GPRMC,091122.00,A,5522.03946,N,01025.91094,E,0.451,,071116,,,A*72

$GPVTG,,T,,M,0.451,N,0.835,K,A*2D

$GPGGA,091122.00,5522.03946,N,01025.91094,E,1,03,3.60,-0.5,M,43.1,M,,*76

$GPGSA,A,2,22,08,11,,,,,,,,,,3.74,3.60,1.00*0F

$GPGSV,2,1,07,08,72,253,48,11,40,277,45,22,07,216,36,30,01,296,*77

$GPGSV,2,2,07,32,,,37,33,23,210,36,40,11,121,33*7A

$GPGLL,5522.03946,N,01025.91094,E,091122.00,A,A*6B

$GPRMC,091123.00,A,5522.03929,N,01025.91037,E,0.348,,071116,,,A*7C

$GPVTG,,T,,M,0.348,N,0.645,K,A*2B

$GPGGA,091123.00,5522.03929,N,01025.91037,E,1,03,3.60,-0.6,M,43.1,M,,*74

$GPGSA,A,2,22,08,11,,,,,,,,,,3.74,3.60,1.00*0F

$GPGSV,2,1,07,08,72,253,48,11,40,277,45,22,07,216,36,30,01,296,*77

$GPGSV,2,2,07,32,,,37,33,23,210,36,40,11,121,33*7A

$GPGLL,5522.03929,N,01025.91037,E,091123.00,A,A*6A

$GPRMC,091124.00,A,5522.03929,N,01025.91006,E,0.470,,071116,,,A*75

$GPVTG,,T,,M,0.470,N,0.871,K,A*2E

$GPGGA,091124.00,5522.03929,N,01025.91006,E,1,03,3.60,-0.6,M,43.1,M,,*71

$GPGSA,A,2,22,08,11,,,,,,,,,,3.74,3.60,1.00*0F

$GPGSV,2,1,07,08,72,253,48,11,40,277,45,22,07,216,36,30,01,296,*77

$GPGSV,2,2,07,32,,,36,33,23,210,36,40,11,121,33*7B

$GPGLL,5522.03929,N,01025.91006,E,091124.00,A,A*6F

$GPRMC,091125.00,A,5522.03906,N,01025.90992,E,0.429,,071116,,,A*70

$GPVTG,,T,,M,0.429,N,0.794,K,A*26

$GPGGA,091125.00,5522.03906,N,01025.90992,E,1,03,3.60,-0.7,M,43.1,M,,*79

$GPGSA,A,2,22,08,11,,,,,,,,,,3.74,3.60,1.00*0F

$GPGSV,2,1,07,08,72,253,49,11,40,277,44,22,07,216,36,30,01,296,*77

$GPGSV,2,2,07,32,,,36,33,23,210,36,40,11,121,33*7B

$GPGLL,5522.03906,N,01025.90992,E,091125.00,A,A*66

$GPRMC,091126.00,A,5522.03888,N,01025.90995,E,0.289,,071116,,,A*7F

$GPVTG,,T,,M,0.289,N,0.536,K,A*20

$GPGGA,091126.00,5522.03888,N,01025.90995,E,1,03,3.60,-0.8,M,43.1,M,,*75

$GPGSA,A,2,22,08,11,,,,,,,,,,3.74,3.60,1.00*0F

$GPGSV,2,1,07,08,72,253,49,11,40,277,44,22,07,216,36,30,01,296,*77

$GPGSV,2,2,07,32,,,36,33,23,210,36,40,11,121,33*7B

$GPGLL,5522.03888,N,01025.90995,E,091126.00,A,A*65

$GPRMC,091127.00,A,5522.03874,N,01025.90989,E,0.079,,071116,,,A*7D

$GPVTG,,T,,M,0.079,N,0.146,K,A*2E

$GPGGA,091127.00,5522.03874,N,01025.90989,E,1,03,3.60,-0.8,M,43.1,M,,*7A

$GPGSA,A,2,22,08,11,,,,,,,,,,3.74,3.60,1.00*0F

$GPGSV,2,1,07,08,72,253,49,11,40,277,44,22,07,216,36,30,01,296,*77

$GPGSV,2,2,07,32,,,36,33,23,210,36,40,11,121,33*7B

$GPGLL,5522.03874,N,01025.90989,E,091127.00,A,A*6A

$GPRMC,091128.00,A,5522.03857,N,01025.90965,E,0.140,,071116,,,A*7A

$GPVTG,,T,,M,0.140,N,0.259,K,A*28

$GPGGA,091128.00,5522.03857,N,01025.90965,E,1,03,3.60,-0.8,M,43.1,M,,*76

$GPGSA,A,2,22,08,11,,,,,,,,,,3.74,3.60,1.00*0F

$GPGSV,2,1,07,08,72,253,49,11,40,277,44,22,07,216,36,30,01,296,*77

$GPGSV,2,2,07,32,,,36,33,23,210,36,40,11,121,33*7B

$GPGLL,5522.03857,N,01025.90965,E,091128.00,A,A*66

$GPRMC,091129.00,A,5522.03848,N,01025.90955,E,0.191,,071116,,,A*7A

$GPVTG,,T,,M,0.191,N,0.354,K,A*28

$GPGGA,091129.00,5522.03848,N,01025.90955,E,1,03,3.60,-0.9,M,43.1,M,,*7B

$GPGSA,A,2,22,08,11,,,,,,,,,,3.74,3.60,1.00*0F

$GPGSV,2,1,07,08,72,253,49,11,40,277,44,22,07,216,36,30,01,296,*77

$GPGSV,2,2,07,32,,,36,33,23,210,36,40,11,121,33*7B

$GPGLL,5522.03848,N,01025.90955,E,091129.00,A,A*6A

$GPRMC,091130.00,A,5522.03832,N,01025.90907,E,0.388,,071116,,,A*72

$GPVTG,,T,,M,0.388,N,0.719,K,A*2F

$GPGGA,091130.00,5522.03832,N,01025.90907,E,1,03,3.60,-0.9,M,43.1,M,,*79

$GPGSA,A,2,22,08,11,,,,,,,,,,3.74,3.60,1.00*0F

$GPGSV,2,1,07,08,72,253,49,11,40,277,44,22,07,216,36,30,01,296,*77

$GPGSV,2,2,07,32,,,36,33,23,210,36,40,11,121,33*7B

$GPGLL,5522.03832,N,01025.90907,E,091130.00,A,A*68

$GPRMC,091131.00,A,5522.03811,N,01025.90914,E,0.355,,071116,,,A*70

$GPVTG,,T,,M,0.355,N,0.657,K,A*24

$GPGGA,091131.00,5522.03811,N,01025.90914,E,1,03,3.60,-1.0,M,43.1,M,,*73

$GPGSA,A,2,22,08,11,,,,,,,,,,3.74,3.60,1.00*0F

$GPGSV,2,1,07,08,72,253,49,11,40,277,44,22,07,216,36,30,01,295,*74

$GPGSV,2,2,07,32,,,36,33,23,210,36,40,11,121,33*7B

$GPGLL,5522.03811,N,01025.90914,E,091131.00,A,A*6A

$GPRMC,091132.00,A,5522.03783,N,01025.90928,E,0.672,,071116,,,A*78

$GPVTG,,T,,M,0.672,N,1.245,K,A*22

$GPGGA,091132.00,5522.03783,N,01025.90928,E,1,03,3.60,-1.0,M,43.1,M,,*7B

$GPGSA,A,2,22,08,11,,,,,,,,,,3.74,3.60,1.00*0F

$GPGSV,2,1,07,08,72,253,49,11,40,277,44,22,07,216,36,30,01,295,*74

$GPGSV,2,2,07,32,,,36,33,23,210,36,40,11,121,33*7B

$GPGLL,5522.03783,N,01025.90928,E,091132.00,A,A*62

$GPRMC,091133.00,A,5522.03766,N,01025.90922,E,0.443,,071116,,,A*78

$GPVTG,,T,,M,0.443,N,0.820,K,A*2A

$GPGGA,091133.00,5522.03766,N,01025.90922,E,1,03,3.60,-1.1,M,43.1,M,,*7A

$GPGSA,A,2,22,08,11,,,,,,,,,,3.74,3.60,1.00*0F

$GPGSV,2,1,07,08,72,253,49,11,40,277,44,22,07,216,35,30,01,295,*77

$GPGSV,2,2,07,32,,,35,33,23,210,36,40,11,121,33*78

$GPGLL,5522.03766,N,01025.90922,E,091133.00,A,A*62

$GPRMC,091134.00,A,5522.03740,N,01025.90919,E,0.408,,071116,,,A*7C

$GPVTG,,T,,M,0.408,N,0.755,K,A*28

$GPGGA,091134.00,5522.03740,N,01025.90919,E,1,03,3.60,-1.2,M,43.1,M,,*72

$GPGSA,A,2,22,08,11,,,,,,,,,,3.74,3.60,1.00*0F

$GPGSV,2,1,08,08,72,253,49,11,40,277,44,22,07,216,36,28,,,32*4C

$GPGSV,2,2,08,30,01,295,,32,,,35,33,23,210,36,40,11,121,33*4B

$GPGLL,5522.03740,N,01025.90919,E,091134.00,A,A*69

$GPRMC,091135.00,A,5522.03717,N,01025.90889,E,0.156,,071116,,,A*79

$GPVTG,,T,,M,0.156,N,0.290,K,A*2A

$GPGGA,091135.00,5522.03717,N,01025.90889,E,1,03,3.60,-1.2,M,43.1,M,,*79

$GPGSA,A,2,22,08,11,,,,,,,,,,3.74,3.60,1.00*0F

$GPGSV,2,1,08,08,72,253,49,11,40,277,44,22,07,216,36,28,,,32*4C

$GPGSV,2,2,08,30,01,295,,32,,,35,33,23,210,36,40,11,121,33*4B

$GPGLL,5522.03717,N,01025.90889,E,091135.00,A,A*62

$GPRMC,091136.00,A,5522.03704,N,01025.90849,E,0.452,,071116,,,A*75

$GPVTG,,T,,M,0.452,N,0.837,K,A*2C

$GPGGA,091136.00,5522.03704,N,01025.90849,E,1,03,3.60,-1.3,M,43.1,M,,*75

$GPGSA,A,2,22,08,11,,,,,,,,,,3.74,3.60,1.00*0F

$GPGSV,2,1,08,08,72,253,49,11,40,277,44,22,07,216,36,28,,,32*4C

$GPGSV,2,2,08,30,01,295,,32,,,36,33,23,210,36,40,11,121,33*48

$GPGLL,5522.03704,N,01025.90849,E,091136.00,A,A*6F

$GPRMC,091137.00,A,5522.03691,N,01025.90833,E,0.148,,071116,,,A*7A

$GPVTG,,T,,M,0.148,N,0.274,K,A*2F

$GPGGA,091137.00,5522.03691,N,01025.90833,E,1,03,3.60,-1.3,M,43.1,M,,*74

$GPGSA,A,2,22,08,11,,,,,,,,,,3.74,3.60,1.00*0F

$GPGSV,2,1,08,08,72,253,49,11,40,277,44,22,07,216,36,28,,,32*4C

$GPGSV,2,2,08,30,01,295,,32,,,35,33,23,210,36,40,11,121,33*4B

$GPGLL,5522.03691,N,01025.90833,E,091137.00,A,A*6E

$GPRMC,091138.00,A,5522.03677,N,01025.90821,E,0.125,,071116,,,A*75

$GPVTG,,T,,M,0.125,N,0.232,K,A*26

$GPGGA,091138.00,5522.03677,N,01025.90821,E,1,03,3.60,-1.3,M,43.1,M,,*70

$GPGSA,A,2,22,08,11,,,,,,,,,,3.74,3.60,1.00*0F

$GPGSV,2,1,08,08,72,253,49,11,40,277,44,22,07,216,36,28,,,32*4C

$GPGSV,2,2,08,30,01,295,,32,,,35,33,23,210,36,40,11,121,33*4B

$GPGLL,5522.03677,N,01025.90821,E,091138.00,A,A*6A

$GPRMC,091139.00,A,5522.03656,N,01025.90818,E,0.453,,071116,,,A*79

$GPVTG,,T,,M,0.453,N,0.838,K,A*22

$GPGGA,091139.00,5522.03656,N,01025.90818,E,1,03,3.60,-1.4,M,43.1,M,,*7F

$GPGSA,A,2,22,08,11,,,,,,,,,,3.74,3.60,1.00*0F

$GPGSV,2,1,08,08,72,253,49,11,40,277,43,22,07,216,36,28,,,31*48

$GPGSV,2,2,08,30,01,295,,32,,,35,33,23,210,36,40,11,121,33*4B

$GPGLL,5522.03656,N,01025.90818,E,091139.00,A,A*62

$GPRMC,091140.00,A,5522.03632,N,01025.90784,E,0.429,,071116,,,A*72

$GPVTG,,T,,M,0.429,N,0.794,K,A*26

$GPGGA,091140.00,5522.03632,N,01025.90784,E,1,03,3.60,-1.4,M,43.1,M,,*79

$GPGSA,A,2,22,08,11,,,,,,,,,,3.74,3.60,1.00*0F

$GPGSV,2,1,08,08,72,253,49,11,40,277,43,22,07,216,36,28,,,31*48

$GPGSV,2,2,08,30,01,295,,32,,,35,33,23,210,36,40,11,121,33*4B

$GPGLL,5522.03632,N,01025.90784,E,091140.00,A,A*64

$GPRMC,091141.00,A,5522.03608,N,01025.90755,E,0.356,,071116,,,A*79

$GPVTG,,T,,M,0.356,N,0.660,K,A*23

$GPGGA,091141.00,5522.03608,N,01025.90755,E,1,03,3.60,-1.5,M,43.1,M,,*7C

$GPGSA,A,2,22,08,11,,,,,,,,,,3.74,3.60,1.00*0F

$GPGSV,2,1,08,08,72,253,49,11,40,277,43,22,07,216,36,28,,,31*48

$GPGSV,2,2,08,30,01,295,,32,,,34,33,23,210,36,40,11,121,33*4A

$GPGLL,5522.03608,N,01025.90755,E,091141.00,A,A*60

$GPRMC,091142.00,A,5522.03592,N,01025.90717,E,0.273,,071116,,,A*7A

$GPVTG,,T,,M,0.273,N,0.506,K,A*26

$GPGGA,091142.00,5522.03592,N,01025.90717,E,1,03,3.60,-1.5,M,43.1,M,,*79

$GPGSA,A,2,22,08,11,,,,,,,,,,3.74,3.60,1.00*0F

$GPGSV,2,1,08,08,72,253,49,11,40,277,43,22,07,216,35,28,,,31*4B

$GPGSV,2,2,08,30,01,295,,32,,,34,33,23,210,36,40,11,121,33*4A

$GPGLL,5522.03592,N,01025.90717,E,091142.00,A,A*65

$GPRMC,091143.00,A,5522.03588,N,01025.90699,E,0.249,,071116,,,A*7E

$GPVTG,,T,,M,0.249,N,0.462,K,A*2C

$GPGGA,091143.00,5522.03588,N,01025.90699,E,1,03,3.60,-1.5,M,43.1,M,,*74

$GPGSA,A,2,22,08,11,,,,,,,,,,3.74,3.60,1.00*0F

$GPGSV,2,1,08,08,72,253,49,11,40,277,43,22,07,216,35,28,,,31*4B

$GPGSV,2,2,08,30,01,295,,32,,,34,33,23,210,36,40,11,121,33*4A

$GPGLL,5522.03588,N,01025.90699,E,091143.00,A,A*68

$GPRMC,091144.00,A,5522.03591,N,01025.90681,E,0.399,,071116,,,A*74

$GPVTG,,T,,M,0.399,N,0.738,K,A*2C

$GPGGA,091144.00,5522.03591,N,01025.90681,E,1,03,3.60,-1.5,M,43.1,M,,*72

$GPGSA,A,2,22,08,11,,,,,,,,,,3.74,3.60,1.00*0F

$GPGSV,2,1,08,08,72,253,49,11,40,277,43,22,07,216,35,28,,,31*4B

$GPGSV,2,2,08,30,01,295,,32,,,34,33,23,210,36,40,11,121,33*4A

$GPGLL,5522.03591,N,01025.90681,E,091144.00,A,A*6E

$GPRMC,091145.00,A,5522.03592,N,01025.90706,E,0.784,,071116,,,A*70

$GPVTG,,T,,M,0.784,N,1.452,K,A*2A

$GPGGA,091145.00,5522.03592,N,01025.90706,E,1,03,3.60,-1.5,M,43.1,M,,*7E

$GPGSA,A,2,22,08,11,,,,,,,,,,3.74,3.60,1.00*0F

$GPGSV,2,1,08,08,72,253,49,11,40,277,43,22,07,216,36,28,,,31*48

$GPGSV,2,2,08,30,01,295,,32,,,33,33,23,210,36,40,11,121,33*4D

$GPGLL,5522.03592,N,01025.90706,E,091145.00,A,A*62

$GPRMC,091146.00,A,5522.03587,N,01025.90707,E,0.297,,071116,,,A*71

$GPVTG,,T,,M,0.297,N,0.550,K,A*2F

$GPGGA,091146.00,5522.03587,N,01025.90707,E,1,03,3.60,-1.5,M,43.1,M,,*78

$GPGSA,A,2,22,08,11,,,,,,,,,,3.74,3.60,1.00*0F

$GPGSV,2,1,08,08,72,253,49,11,40,277,43,22,07,216,35,28,,,31*4B

$GPGSV,2,2,08,30,01,295,,32,,,32,33,23,210,36,40,11,121,33*4C

$GPGLL,5522.03587,N,01025.90707,E,091146.00,A,A*64

$GPRMC,091147.00,A,5522.03576,N,01025.90668,E,0.286,,071116,,,A*76

$GPVTG,,T,,M,0.286,N,0.529,K,A*21

$GPGGA,091147.00,5522.03576,N,01025.90668,E,1,03,3.60,-1.6,M,43.1,M,,*7C

$GPGSA,A,2,22,08,11,,,,,,,,,,3.74,3.60,1.00*0F

$GPGSV,3,1,09,01,,,34,08,72,253,49,11,40,277,43,22,07,216,35*45

$GPGSV,3,2,09,28,,,31,30,01,295,,32,,,32,33,23,210,36*72

$GPGSV,3,3,09,40,11,121,33*46

$GPGLL,5522.03576,N,01025.90668,E,091147.00,A,A*63

$GPRMC,091148.00,A,5522.03571,N,01025.90672,E,0.412,,071116,,,A*7E

$GPVTG,,T,,M,0.412,N,0.762,K,A*27

$GPGGA,091148.00,5522.03571,N,01025.90672,E,1,03,3.60,-1.6,M,43.1,M,,*7F

$GPGSA,A,2,22,08,11,,,,,,,,,,3.74,3.60,1.00*0F

$GPGSV,3,1,09,01,,,34,08,72,253,49,11,40,277,43,22,07,216,35*45

$GPGSV,3,2,09,28,,,31,30,01,295,,32,,,31,33,23,210,36*71

$GPGSV,3,3,09,40,11,121,33*46

$GPGLL,5522.03571,N,01025.90672,E,091148.00,A,A*60

$GPRMC,091149.00,A,5522.03568,N,01025.90668,E,0.084,,071116,,,A*77

$GPVTG,,T,,M,0.084,N,0.155,K,A*2E

$GPGGA,091149.00,5522.03568,N,01025.90668,E,1,03,3.60,-1.6,M,43.1,M,,*7D

$GPGSA,A,2,22,08,11,,,,,,,,,,3.74,3.60,1.00*0F

$GPGSV,3,1,09,01,,,34,08,72,253,49,11,40,277,43,22,07,216,35*45

$GPGSV,3,2,09,28,,,31,30,01,295,,32,,,31,33,23,210,36*71

$GPGSV,3,3,09,40,11,121,33*46

$GPGLL,5522.03568,N,01025.90668,E,091149.00,A,A*62

$GPRMC,091150.00,A,5522.03555,N,01025.90682,E,0.395,,071116,,,A*76

$GPVTG,,T,,M,0.395,N,0.731,K,A*29

$GPGGA,091150.00,5522.03555,N,01025.90682,E,1,03,3.60,-1.6,M,43.1,M,,*7F

$GPGSA,A,2,22,08,11,,,,,,,,,,3.74,3.60,1.00*0F

$GPGSV,3,1,09,01,,,34,08,72,253,49,11,40,277,43,22,07,216,35*45

$GPGSV,3,2,09,28,,,31,30,01,295,,32,,,31,33,23,210,36*71

$GPGSV,3,3,09,40,11,121,33*46

$GPGLL,5522.03555,N,01025.90682,E,091150.00,A,A*60

$GPRMC,091151.00,A,5522.03549,N,01025.90688,E,0.347,,071116,,,A*7F

$GPVTG,,T,,M,0.347,N,0.642,K,A*23

$GPGGA,091151.00,5522.03549,N,01025.90688,E,1,03,3.60,-1.6,M,43.1,M,,*79

$GPGSA,A,2,22,08,11,,,,,,,,,,3.74,3.60,1.00*0F

$GPGSV,3,1,09,01,,,34,08,72,253,49,11,40,277,42,22,07,216,35*44

$GPGSV,3,2,09,28,,,30,30,01,295,,32,,,31,33,23,210,36*70

$GPGSV,3,3,09,40,11,121,33*46

$GPGLL,5522.03549,N,01025.90688,E,091151.00,A,A*66

$GPRMC,091152.00,A,5522.00642,N,01025.84076,E,0.232,,071116,,,A*76

$GPVTG,,T,,M,0.232,N,0.430,K,A*27

$GPGGA,091152.00,5522.00642,N,01025.84076,E,1,04,3.07,67.8,M,43.1,M,,*66

$GPGSA,A,3,22,08,32,11,,,,,,,,,4.49,3.07,3.27*00

$GPGSV,3,1,09,01,,,34,08,72,253,49,11,40,277,42,22,07,216,35*44

$GPGSV,3,2,09,28,,,31,30,01,295,,32,24,123,32,33,23,210,36*44

$GPGSV,3,3,09,40,11,121,33*46

$GPGLL,5522.00642,N,01025.84076,E,091152.00,A,A*6C

$GPRMC,091153.00,A,5522.00650,N,01025.84096,E,0.459,,071116,,,A*71

$GPVTG,,T,,M,0.459,N,0.850,K,A*26

$GPGGA,091153.00,5522.00650,N,01025.84096,E,1,04,3.07,67.8,M,43.1,M,,*6A

$GPGSA,A,3,22,08,32,11,,,,,,,,,4.49,3.07,3.27*00

$GPGSV,3,1,09,01,,,35,08,72,253,49,11,40,277,42,22,07,216,35*45

$GPGSV,3,2,09,28,,,31,30,01,295,,32,24,123,32,33,23,210,36*44

$GPGSV,3,3,09,40,11,121,33*46

$GPGLL,5522.00650,N,01025.84096,E,091153.00,A,A*60

$GPRMC,091154.00,A,5522.00628,N,01025.84118,E,0.695,,071116,,,A*7C

$GPVTG,,T,,M,0.695,N,1.287,K,A*25

$GPGGA,091154.00,5522.00628,N,01025.84118,E,1,04,3.07,68.4,M,43.1,M,,*66

$GPGSA,A,3,22,08,32,11,,,,,,,,,4.48,3.07,3.27*01

$GPGSV,3,1,09,01,,,35,08,72,253,49,11,40,277,42,22,07,216,35*45

$GPGSV,3,2,09,28,,,30,30,01,295,,32,24,123,32,33,23,210,36*45

$GPGSV,3,3,09,40,11,121,33*46

$GPGLL,5522.00628,N,01025.84118,E,091154.00,A,A*6F

$GPRMC,091155.00,A,5522.00634,N,01025.84136,E,0.060,,071116,,,A*70

$GPVTG,,T,,M,0.060,N,0.111,K,A*24

$GPGGA,091155.00,5522.00634,N,01025.84136,E,1,04,3.07,68.4,M,43.1,M,,*66

$GPGSA,A,3,22,08,32,11,,,,,,,,,4.48,3.07,3.27*01

$GPGSV,3,1,09,01,,,35,08,72,253,49,11,40,277,42,22,07,216,35*45

$GPGSV,3,2,09,28,,,31,30,01,295,,32,24,123,32,33,23,210,36*44

$GPGSV,3,3,09,40,11,121,33*46

$GPGLL,5522.00634,N,01025.84136,E,091155.00,A,A*6F

$GPRMC,091156.00,A,5522.00647,N,01025.84173,E,0.274,,071116,,,A*71

$GPVTG,,T,,M,0.274,N,0.508,K,A*2F

$GPGGA,091156.00,5522.00647,N,01025.84173,E,1,04,3.07,68.0,M,43.1,M,,*64

$GPGSA,A,3,22,08,32,11,,,,,,,,,4.48,3.07,3.27*01

$GPGSV,3,1,09,01,,,35,08,72,253,49,11,40,277,42,22,07,216,35*45

$GPGSV,3,2,09,28,,,31,30,01,295,,32,24,123,33,33,23,210,36*45

$GPGSV,3,3,09,40,11,121,33*46

$GPGLL,5522.00647,N,01025.84173,E,091156.00,A,A*69

$GPRMC,091157.00,A,5522.00654,N,01025.84216,E,0.270,,071116,,,A*76

$GPVTG,,T,,M,0.270,N,0.500,K,A*23

$GPGGA,091157.00,5522.00654,N,01025.84216,E,1,04,3.07,68.1,M,43.1,M,,*66

$GPGSA,A,3,22,08,32,11,,,,,,,,,4.48,3.07,3.26*00

$GPGSV,3,1,09,01,,,35,08,72,253,49,11,40,277,42,22,07,216,35*45

$GPGSV,3,2,09,28,,,31,30,01,295,,32,24,123,32,33,23,210,36*44

$GPGSV,3,3,09,40,11,121,33*46

$GPGLL,5522.00654,N,01025.84216,E,091157.00,A,A*6A

$GPRMC,091158.00,A,5522.00675,N,01025.84264,E,0.325,,071116,,,A*7E

$GPVTG,,T,,M,0.325,N,0.603,K,A*22

$GPGGA,091158.00,5522.00675,N,01025.84264,E,1,04,3.07,67.6,M,43.1,M,,*67

$GPGSA,A,3,22,08,32,11,,,,,,,,,4.48,3.07,3.26*00

$GPGSV,3,1,09,01,,,35,08,72,253,49,11,40,277,42,22,07,216,35*45

$GPGSV,3,2,09,28,,,31,30,01,295,,32,24,123,33,33,23,210,36*45

$GPGSV,3,3,09,40,11,121,33*46

$GPGLL,5522.00675,N,01025.84264,E,091158.00,A,A*63

$GPRMC,091159.00,A,5522.00691,N,01025.84302,E,0.519,,071116,,,A*7D

$GPVTG,,T,,M,0.519,N,0.961,K,A*20

$GPGGA,091159.00,5522.00691,N,01025.84302,E,1,04,3.07,67.0,M,43.1,M,,*6B

$GPGSA,A,3,22,08,32,11,,,,,,,,,4.48,3.07,3.26*00

$GPGSV,3,1,09,01,,,35,08,72,253,49,11,40,277,42,22,07,216,35*45

$GPGSV,3,2,09,28,,,31,30,01,295,,32,24,123,33,33,23,210,36*45

$GPGSV,3,3,09,40,11,121,33*46

$GPGLL,5522.00691,N,01025.84302,E,091159.00,A,A*69

$GPRMC,091200.00,A,5522.00723,N,01025.84387,E,0.542,,071116,,,A*79

$GPVTG,,T,,M,0.542,N,1.004,K,A*25

$GPGGA,091200.00,5522.00723,N,01025.84387,E,1,04,3.07,66.6,M,43.1,M,,*66

$GPGSA,A,3,22,08,32,11,,,,,,,,,4.48,3.07,3.26*00

$GPGSV,3,1,09,01,,,35,08,72,253,48,11,40,277,42,22,07,216,35*44

$GPGSV,3,2,09,28,,,32,30,01,295,,32,24,123,33,33,23,210,36*46

$GPGSV,3,3,09,40,11,121,33*46

$GPGLL,5522.00723,N,01025.84387,E,091200.00,A,A*63

$GPRMC,091201.00,A,5522.00750,N,01025.84484,E,0.371,,071116,,,A*7E

$GPVTG,,T,,M,0.371,N,0.687,K,A*2F

$GPGGA,091201.00,5522.00750,N,01025.84484,E,1,04,3.07,65.9,M,43.1,M,,*6B

$GPGSA,A,3,22,08,32,11,,,,,,,,,4.48,3.07,3.26*00

$GPGSV,3,1,09,01,,,35,08,72,253,49,11,40,277,42,22,07,216,35*45

$GPGSV,3,2,09,28,,,32,30,01,295,,32,24,123,34,33,23,210,36*41

$GPGSV,3,3,09,40,11,121,33*46

$GPGLL,5522.00750,N,01025.84484,E,091201.00,A,A*62

$GPRMC,091202.00,A,5522.00783,N,01025.84567,E,0.232,,071116,,,A*79

$GPVTG,,T,,M,0.232,N,0.429,K,A*2F

$GPGGA,091202.00,5522.00783,N,01025.84567,E,1,04,3.07,65.1,M,43.1,M,,*62

$GPGSA,A,3,22,08,32,11,,,,,,,,,4.48,3.07,3.26*00

$GPGSV,3,1,09,01,,,35,08,72,253,49,11,40,277,41,22,07,216,35*46

$GPGSV,3,2,09,28,,,32,30,01,295,,32,24,123,34,33,23,210,36*41

$GPGSV,3,3,09,40,11,121,33*46

$GPGLL,5522.00783,N,01025.84567,E,091202.00,A,A*63

$GPRMC,091203.00,A,5522.00821,N,01025.84662,E,0.362,,071116,,,A*7D

$GPVTG,,T,,M,0.362,N,0.670,K,A*25

$GPGGA,091203.00,5522.00821,N,01025.84662,E,1,04,3.07,63.9,M,43.1,M,,*6C

$GPGSA,A,3,22,08,32,11,,,,,,,,,4.48,3.07,3.26*00

$GPGSV,3,1,09,01,,,35,08,72,253,49,11,40,277,41,22,07,216,35*46

$GPGSV,3,2,09,28,,,32,30,01,295,,32,24,123,35,33,23,210,36*40

$GPGSV,3,3,09,40,11,121,33*46

$GPGLL,5522.00821,N,01025.84662,E,091203.00,A,A*63

$GPRMC,091204.00,A,5522.01031,N,01025.84916,E,0.182,,071116,,,A*72

$GPVTG,,T,,M,0.182,N,0.338,K,A*20

$GPGGA,091204.00,5522.01031,N,01025.84916,E,1,06,1.19,60.7,M,43.1,M,,*6D

$GPGSA,A,3,01,22,28,08,32,11,,,,,,,2.00,1.19,1.60*0C

$GPGSV,3,1,09,01,26,266,35,08,72,253,49,11,40,277,41,22,07,216,35*70

$GPGSV,3,2,09,28,18,326,32,30,01,295,,32,24,123,36,33,23,210,36*7D

$GPGSV,3,3,09,40,11,121,33*46

$GPGLL,5522.01031,N,01025.84916,E,091204.00,A,A*60

$GPRMC,091205.00,A,5522.01181,N,01025.85093,E,0.014,,071116,,,A*72

$GPVTG,,T,,M,0.014,N,0.026,K,A*22

$GPGGA,091205.00,5522.01181,N,01025.85093,E,1,06,1.19,58.6,M,43.1,M,,*69

$GPGSA,A,3,01,22,28,08,32,11,,,,,,,2.00,1.19,1.60*0C

$GPGSV,3,1,09,01,26,266,35,08,72,253,49,11,40,277,41,22,07,216,35*70

$GPGSV,3,2,09,28,18,326,31,30,01,295,,32,24,123,36,33,23,210,36*7E

$GPGSV,3,3,09,40,11,121,33*46

$GPGLL,5522.01181,N,01025.85093,E,091205.00,A,A*6E

$GPRMC,091206.00,A,5522.01336,N,01025.85250,E,0.017,,071116,,,A*71

$GPVTG,,T,,M,0.017,N,0.032,K,A*24

$GPGGA,091206.00,5522.01336,N,01025.85250,E,1,06,1.19,56.4,M,43.1,M,,*65

$GPGSA,A,3,01,22,28,08,32,11,,,,,,,2.00,1.19,1.60*0C

$GPGSV,3,1,09,01,26,266,35,08,72,253,49,11,40,277,41,22,07,216,35*70

$GPGSV,3,2,09,28,18,326,32,30,01,295,,32,24,123,36,33,23,210,36*7D

$GPGSV,3,3,09,40,11,121,33*46

$GPGLL,5522.01336,N,01025.85250,E,091206.00,A,A*6E

$GPRMC,091207.00,A,5522.01446,N,01025.85386,E,0.002,,071116,,,A*7E

$GPVTG,,T,,M,0.002,N,0.004,K,A*25

$GPGGA,091207.00,5522.01446,N,01025.85386,E,1,06,1.19,54.9,M,43.1,M,,*61

$GPGSA,A,3,01,22,28,08,32,11,,,,,,,2.00,1.19,1.60*0C

$GPGSV,3,1,09,01,26,266,35,08,72,253,49,11,40,277,41,22,07,216,36*73

$GPGSV,3,2,09,28,18,326,32,30,01,295,,32,24,123,37,33,23,210,36*7C

$GPGSV,3,3,09,40,11,121,33*46

$GPGLL,5522.01446,N,01025.85386,E,091207.00,A,A*65

$GPRMC,091208.00,A,5522.01531,N,01025.85502,E,0.011,,071116,,,A*78

$GPVTG,,T,,M,0.011,N,0.019,K,A*2B

$GPGGA,091208.00,5522.01531,N,01025.85502,E,1,06,1.19,53.6,M,43.1,M,,*6D

$GPGSA,A,3,01,22,28,08,32,11,,,,,,,2.00,1.19,1.61*0D

$GPGSV,3,1,09,01,26,266,35,08,72,253,49,11,40,277,41,22,07,216,36*73

$GPGSV,3,2,09,28,18,326,32,30,01,295,,32,24,123,38,33,23,210,36*73

$GPGSV,3,3,09,40,11,121,33*46

$GPGLL,5522.01531,N,01025.85502,E,091208.00,A,A*61

$GPRMC,091209.00,A,5522.01602,N,01025.85603,E,0.026,,071116,,,A*7C

$GPVTG,,T,,M,0.026,N,0.048,K,A*2B

$GPGGA,091209.00,5522.01602,N,01025.85603,E,1,06,1.19,52.4,M,43.1,M,,*6E

$GPGSA,A,3,01,22,28,08,32,11,,,,,,,2.00,1.19,1.61*0D

$GPGSV,3,1,09,01,26,266,35,08,72,253,49,11,40,277,41,22,07,216,36*73

$GPGSV,3,2,09,28,18,326,32,30,01,295,,32,24,123,38,33,23,210,36*73

$GPGSV,3,3,09,40,11,121,33*46

$GPGLL,5522.01602,N,01025.85603,E,091209.00,A,A*61

$GPRMC,091210.00,A,5522.01666,N,01025.85716,E,0.129,,071116,,,A*7D

$GPVTG,,T,,M,0.129,N,0.238,K,A*20

$GPGGA,091210.00,5522.01666,N,01025.85716,E,1,06,1.19,51.3,M,43.1,M,,*65

$GPGSA,A,3,01,22,28,08,32,11,,,,,,,2.00,1.19,1.61*0D

$GPGSV,3,1,09,01,26,266,36,08,72,253,49,11,40,277,41,22,07,216,36*70

$GPGSV,3,2,09,28,18,326,32,30,01,295,,32,24,123,39,33,23,210,36*72

$GPGSV,3,3,09,40,11,121,33*46

$GPGLL,5522.01666,N,01025.85716,E,091210.00,A,A*6E

$GPRMC,091211.00,A,5522.01655,N,01025.85753,E,4.652,203.87,071116,,,A*62

$GPVTG,203.87,T,,M,4.652,N,8.615,K,A*3C

$GPGGA,091211.00,5522.01655,N,01025.85753,E,1,06,1.19,50.6,M,43.1,M,,*61

$GPGSA,A,3,01,22,28,08,32,11,,,,,,,2.00,1.19,1.61*0D

$GPGSV,3,1,09,01,26,266,36,08,72,253,49,11,40,277,41,22,07,216,36*70

$GPGSV,3,2,09,28,18,326,32,30,01,295,,32,24,123,39,33,23,210,36*72

$GPGSV,3,3,09,40,11,121,33*46

$GPGLL,5522.01655,N,01025.85753,E,091211.00,A,A*6E

$GPRMC,091212.00,A,5522.01659,N,01025.85768,E,0.181,,071116,,,A*78

$GPVTG,,T,,M,0.181,N,0.336,K,A*2D

$GPGGA,091212.00,5522.01659,N,01025.85768,E,1,06,1.19,50.2,M,43.1,M,,*62

$GPGSA,A,3,01,22,28,08,32,11,,,,,,,2.00,1.19,1.61*0D

$GPGSV,3,1,09,01,26,266,36,08,72,253,49,11,40,277,41,22,07,216,36*70

$GPGSV,3,2,09,28,18,326,33,30,01,295,,32,24,123,39,33,23,210,36*73

$GPGSV,3,3,09,40,11,121,33*46

$GPGLL,5522.01659,N,01025.85768,E,091212.00,A,A*69

$GPRMC,091213.00,A,5522.01702,N,01025.85804,E,0.102,,071116,,,A*78

$GPVTG,,T,,M,0.102,N,0.189,K,A*20

$GPGGA,091213.00,5522.01702,N,01025.85804,E,1,06,1.19,49.9,M,43.1,M,,*6A

$GPGSA,A,3,01,22,28,08,32,11,,,,,,,2.00,1.19,1.61*0D

$GPGSV,3,1,09,01,26,266,36,08,72,253,49,11,40,277,40,22,07,216,36*71

$GPGSV,3,2,09,28,18,326,33,30,01,295,,32,24,123,40,33,23,210,36*7D

$GPGSV,3,3,09,40,11,121,33*46

$GPGLL,5522.01702,N,01025.85804,E,091213.00,A,A*62

$GPRMC,091214.00,A,5522.01743,N,01025.85846,E,0.017,,071116,,,A*79

$GPVTG,,T,,M,0.017,N,0.031,K,A*27

$GPGGA,091214.00,5522.01743,N,01025.85846,E,1,06,1.19,49.6,M,43.1,M,,*61

$GPGSA,A,3,01,22,28,08,32,11,,,,,,,2.00,1.19,1.61*0D

$GPGSV,3,1,09,01,26,266,36,08,72,253,49,11,40,277,40,22,07,216,36*71

$GPGSV,3,2,09,28,18,326,33,30,01,295,,32,24,123,40,33,23,210,36*7D

$GPGSV,3,3,09,40,11,121,33*46

$GPGLL,5522.01743,N,01025.85846,E,091214.00,A,A*66

$GPRMC,091215.00,A,5522.01781,N,01025.85898,E,0.030,,071116,,,A*70

$GPVTG,,T,,M,0.030,N,0.055,K,A*20

$GPGGA,091215.00,5522.01781,N,01025.85898,E,1,06,1.19,49.3,M,43.1,M,,*68

$GPGSA,A,3,01,22,28,08,32,11,,,,,,,2.00,1.19,1.61*0D

$GPGSV,3,1,09,01,26,266,36,08,72,253,49,11,40,277,40,22,07,216,37*70

$GPGSV,3,2,09,28,18,326,33,30,01,295,,32,24,123,40,33,23,210,36*7D

$GPGSV,3,3,09,40,11,121,33*46

$GPGLL,5522.01781,N,01025.85898,E,091215.00,A,A*6A

$GPRMC,091216.00,A,5522.01813,N,01025.85947,E,0.004,,071116,,,A*73

$GPVTG,,T,,M,0.004,N,0.007,K,A*20

$GPGGA,091216.00,5522.01813,N,01025.85947,E,1,06,1.19,48.9,M,43.1,M,,*67

$GPGSA,A,3,01,22,28,08,32,11,,,,,,,2.00,1.19,1.61*0D

$GPGSV,3,1,10,01,26,266,36,08,72,253,49,10,58,076,,11,40,277,40*73

$GPGSV,3,2,10,22,07,216,37,28,18,326,33,30,01,295,,32,24,123,40*74

$GPGSV,3,3,10,33,23,210,36,40,11,121,33*79

$GPGLL,5522.01813,N,01025.85947,E,091216.00,A,A*6E

$GPRMC,091217.00,A,5522.01836,N,01025.85980,E,0.013,,071116,,,A*78

$GPVTG,,T,,M,0.013,N,0.024,K,A*27

$GPGGA,091217.00,5522.01836,N,01025.85980,E,1,06,1.19,48.8,M,43.1,M,,*6B

$GPGSA,A,3,01,22,28,08,32,11,,,,,,,2.00,1.19,1.61*0D

$GPGSV,3,1,10,01,26,266,36,08,72,253,49,10,58,076,26,11,40,277,40*77

$GPGSV,3,2,10,22,07,216,37,28,18,326,33,30,01,295,,32,24,123,41*75

$GPGSV,3,3,10,33,23,210,36,40,11,121,33*79

$GPGLL,5522.01836,N,01025.85980,E,091217.00,A,A*63

$GPRMC,091218.00,A,5522.01875,N,01025.86011,E,0.014,,071116,,,A*75

$GPVTG,,T,,M,0.014,N,0.026,K,A*22

$GPGGA,091218.00,5522.01875,N,01025.86011,E,1,06,1.19,48.6,M,43.1,M,,*6F

$GPGSA,A,3,01,22,28,08,32,11,,,,,,,2.00,1.19,1.61*0D

$GPGSV,3,1,10,01,26,266,36,08,72,253,49,10,58,076,26,11,40,277,40*77

$GPGSV,3,2,10,22,07,216,37,28,18,326,34,30,01,295,,32,24,123,41*72

$GPGSV,3,3,10,33,23,210,36,40,11,121,33*79

$GPGLL,5522.01875,N,01025.86011,E,091218.00,A,A*69

$GPRMC,091219.00,A,5522.01911,N,01025.86042,E,0.013,,071116,,,A*76

$GPVTG,,T,,M,0.013,N,0.024,K,A*27

$GPGGA,091219.00,5522.01911,N,01025.86042,E,1,06,1.19,48.3,M,43.1,M,,*6E

$GPGSA,A,3,01,22,28,08,32,11,,,,,,,2.00,1.19,1.61*0D

$GPGSV,3,1,10,01,26,266,36,08,72,253,49,10,58,076,27,11,40,277,40*76

$GPGSV,3,2,10,22,07,216,37,28,18,326,34,30,01,295,,32,24,123,41*72

$GPGSV,3,3,10,33,23,210,36,40,11,121,33*79

$GPGLL,5522.01911,N,01025.86042,E,091219.00,A,A*6D

$GPRMC,091220.00,A,5522.01968,N,01025.86076,E,0.020,,071116,,,A*75

$GPVTG,,T,,M,0.020,N,0.037,K,A*25

$GPGGA,091220.00,5522.01968,N,01025.86076,E,1,06,1.19,47.9,M,43.1,M,,*68

$GPGSA,A,3,01,22,28,08,32,11,,,,,,,2.00,1.19,1.61*0D

$GPGSV,3,1,10,01,26,266,36,08,72,252,49,10,58,076,27,11,40,277,40*77

$GPGSV,3,2,10,22,07,216,37,28,18,326,35,30,01,295,,32,24,123,41*73

$GPGSV,3,3,10,33,23,210,36,40,11,121,33*79

$GPGLL,5522.01968,N,01025.86076,E,091220.00,A,A*6E

$GPRMC,091221.00,A,5522.02032,N,01025.86110,E,0.026,,071116,,,A*76

$GPVTG,,T,,M,0.026,N,0.048,K,A*2B

$GPGGA,091221.00,5522.02032,N,01025.86110,E,1,06,1.19,47.3,M,43.1,M,,*67

$GPGSA,A,3,01,22,28,08,32,11,,,,,,,2.00,1.19,1.61*0D

$GPGSV,3,1,10,01,26,266,36,08,72,252,48,10,58,076,27,11,40,277,40*76

$GPGSV,3,2,10,22,07,216,38,28,18,326,35,30,01,295,,32,24,123,41*7C

$GPGSV,3,3,10,33,23,210,36,40,11,121,33*79

$GPGLL,5522.02032,N,01025.86110,E,091221.00,A,A*6B

$GPRMC,091222.00,A,5522.02081,N,01025.86135,E,0.023,,071116,,,A*7F

$GPVTG,,T,,M,0.023,N,0.043,K,A*25

$GPGGA,091222.00,5522.02081,N,01025.86135,E,1,06,1.19,47.0,M,43.1,M,,*68

$GPGSA,A,3,01,22,28,08,32,11,,,,,,,2.00,1.19,1.61*0D

$GPGSV,3,1,10,01,26,266,36,08,72,252,48,10,58,076,27,11,40,277,40*76

$GPGSV,3,2,10,22,07,216,38,28,18,326,35,30,01,295,,32,24,123,41*7C

$GPGSV,3,3,10,33,23,210,36,40,11,121,33*79

$GPGLL,5522.02081,N,01025.86135,E,091222.00,A,A*67

$GPRMC,091223.00,A,5522.02116,N,01025.86156,E,0.017,,071116,,,A*73

$GPVTG,,T,,M,0.017,N,0.032,K,A*24

$GPGGA,091223.00,5522.02116,N,01025.86156,E,1,06,1.19,46.6,M,43.1,M,,*64

$GPGSA,A,3,01,22,28,08,32,11,,,,,,,2.00,1.19,1.61*0D

$GPGSV,3,1,10,01,26,266,35,08,72,252,49,10,58,076,27,11,40,277,40*74

$GPGSV,3,2,10,22,07,216,38,28,18,326,35,30,01,295,,32,24,123,41*7C

$GPGSV,3,3,10,33,23,210,36,40,11,121,34*7E

$GPGLL,5522.02116,N,01025.86156,E,091223.00,A,A*6C

$GPRMC,091224.00,A,5522.02150,N,01025.86176,E,0.007,,071116,,,A*75

$GPVTG,,T,,M,0.007,N,0.012,K,A*27

$GPGGA,091224.00,5522.02150,N,01025.86176,E,1,06,1.19,46.2,M,43.1,M,,*67

$GPGSA,A,3,01,22,28,08,32,11,,,,,,,2.00,1.19,1.61*0D

$GPGSV,3,1,10,01,26,266,35,08,72,252,49,10,58,076,27,11,40,277,40*74

$GPGSV,3,2,10,22,07,216,38,28,18,326,35,30,01,295,,32,24,123,41*7C

$GPGSV,3,3,10,33,23,210,36,40,11,121,33*79

$GPGLL,5522.02150,N,01025.86176,E,091224.00,A,A*6B

$GPRMC,091225.00,A,5522.02198,N,01025.86194,E,0.029,,071116,,,A*70

$GPVTG,,T,,M,0.029,N,0.054,K,A*29

$GPGGA,091225.00,5522.02198,N,01025.86194,E,1,06,1.19,45.7,M,43.1,M,,*68

$GPGSA,A,3,01,22,28,08,32,11,,,,,,,2.00,1.19,1.61*0D

$GPGSV,3,1,10,01,26,266,35,08,72,252,49,10,58,076,25,11,40,277,39*78

$GPGSV,3,2,10,22,07,216,38,28,18,326,36,30,01,295,,32,24,123,41*7F

$GPGSV,3,3,10,33,23,210,36,40,11,121,33*79

$GPGLL,5522.02198,N,01025.86194,E,091225.00,A,A*62

$GPRMC,091226.00,A,5522.02236,N,01025.86208,E,0.023,,071116,,,A*78

$GPVTG,,T,,M,0.023,N,0.043,K,A*25

$GPGGA,091226.00,5522.02236,N,01025.86208,E,1,06,1.19,45.3,M,43.1,M,,*6E

$GPGSA,A,3,01,22,28,08,32,11,,,,,,,2.00,1.19,1.61*0D

$GPGSV,3,1,10,01,26,266,35,08,72,252,49,10,58,076,24,11,40,277,39*79

$GPGSV,3,2,10,22,07,216,38,28,18,326,36,30,01,295,,32,24,123,41*7F

$GPGSV,3,3,10,33,23,210,36,40,11,121,33*79

$GPGLL,5522.02236,N,01025.86208,E,091226.00,A,A*60

$GPRMC,091227.00,A,5522.02268,N,01025.86221,E,0.008,,071116,,,A*70

$GPVTG,,T,,M,0.008,N,0.014,K,A*2E

$GPGGA,091227.00,5522.02268,N,01025.86221,E,1,06,1.19,45.0,M,43.1,M,,*6C

$GPGSA,A,3,01,22,28,08,32,11,,,,,,,2.00,1.19,1.61*0D

$GPGSV,3,1,10,01,26,266,35,08,72,252,49,10,58,076,22,11,40,277,39*7F

$GPGSV,3,2,10,22,07,216,38,28,18,326,36,30,01,295,,32,24,123,41*7F

$GPGSV,3,3,10,33,23,210,36,40,11,121,33*79

$GPGLL,5522.02268,N,01025.86221,E,091227.00,A,A*61

$GPRMC,091228.00,A,5522.02289,N,01025.86237,E,0.021,,071116,,,A*7C

$GPVTG,,T,,M,0.021,N,0.039,K,A*2A

$GPGGA,091228.00,5522.02289,N,01025.86237,E,1,06,1.19,44.9,M,43.1,M,,*63

$GPGSA,A,3,01,22,28,08,32,11,,,,,,,2.00,1.19,1.61*0D

$GPGSV,3,1,10,01,26,266,35,08,72,252,49,10,58,076,21,11,40,277,39*7C

$GPGSV,3,2,10,22,07,216,39,28,18,326,35,30,01,295,,32,24,123,41*7D

$GPGSV,3,3,10,33,23,210,36,40,11,121,33*79

$GPGLL,5522.02289,N,01025.86237,E,091228.00,A,A*66

$GPRMC,091229.00,A,5522.02307,N,01025.86250,E,0.014,,071116,,,A*7D

$GPVTG,,T,,M,0.014,N,0.025,K,A*21

$GPGGA,091229.00,5522.02307,N,01025.86250,E,1,06,1.19,44.8,M,43.1,M,,*65

$GPGSA,A,3,01,22,28,08,32,11,,,,,,,2.00,1.19,1.61*0D

$GPGSV,3,1,10,01,26,266,35,08,72,252,49,10,58,076,19,11,40,277,39*77

$GPGSV,3,2,10,22,07,216,39,28,18,326,35,30,01,295,,32,24,123,41*7D

$GPGSV,3,3,10,33,23,210,36,40,11,121,33*79

$GPGLL,5522.02307,N,01025.86250,E,091229.00,A,A*61

$GPRMC,091230.00,A,5522.02320,N,01025.86255,E,0.033,,071116,,,A*70

$GPVTG,,T,,M,0.033,N,0.061,K,A*24

$GPGGA,091230.00,5522.02320,N,01025.86255,E,1,06,1.19,44.7,M,43.1,M,,*62

$GPGSA,A,3,01,22,28,08,32,11,,,,,,,2.00,1.19,1.61*0D

$GPGSV,3,1,10,01,26,266,34,08,72,252,49,10,58,076,19,11,40,277,39*76

$GPGSV,3,2,10,22,07,216,39,28,18,326,35,30,01,295,,32,24,123,41*7D

$GPGSV,3,3,10,33,23,210,36,40,11,121,33*79

$GPGLL,5522.02320,N,01025.86255,E,091230.00,A,A*69

$GPRMC,091231.00,A,5522.02344,N,01025.86271,E,1.394,49.75,071116,,,A*5B

$GPVTG,49.75,T,,M,1.394,N,2.582,K,A*00

$GPGGA,091231.00,5522.02344,N,01025.86271,E,1,06,1.19,44.9,M,43.1,M,,*69

$GPGSA,A,3,01,22,28,08,32,11,,,,,,,2.00,1.19,1.61*0D

$GPGSV,3,1,10,01,26,266,34,08,72,252,49,10,58,076,17,11,40,277,39*78

$GPGSV,3,2,10,22,07,216,39,28,18,326,35,30,01,295,,32,24,123,41*7D

$GPGSV,3,3,10,33,23,210,36,40,11,121,33*79

$GPGLL,5522.02344,N,01025.86271,E,091231.00,A,A*6C

$GPRMC,091232.00,A,5522.02376,N,01025.86298,E,0.063,,071116,,,A*75

$GPVTG,,T,,M,0.063,N,0.117,K,A*21

$GPGGA,091232.00,5522.02376,N,01025.86298,E,1,06,1.19,44.5,M,43.1,M,,*60

$GPGSA,A,3,01,22,28,08,32,11,,,,,,,2.00,1.19,1.61*0D

$GPGSV,3,1,10,01,26,266,34,08,72,252,48,10,58,076,17,11,40,277,39*79

$GPGSV,3,2,10,22,07,216,39,28,18,326,35,30,01,295,,32,24,123,41*7D

$GPGSV,3,3,10,33,23,210,36,40,11,121,33*79

$GPGLL,5522.02376,N,01025.86298,E,091232.00,A,A*69

$GPRMC,091233.00,A,5522.02397,N,01025.86310,E,0.030,,071116,,,A*7C

$GPVTG,,T,,M,0.030,N,0.055,K,A*20

$GPGGA,091233.00,5522.02397,N,01025.86310,E,1,06,1.19,44.0,M,43.1,M,,*6A

$GPGSA,A,3,01,22,28,08,32,11,,,,,,,2.00,1.19,1.61*0D

$GPGSV,3,1,10,01,26,266,34,08,72,252,48,10,58,076,17,11,40,277,38*78

$GPGSV,3,2,10,22,07,216,40,28,18,326,35,30,01,295,,32,24,123,41*73

$GPGSV,3,3,10,33,23,210,36,40,11,121,33*79

$GPGLL,5522.02397,N,01025.86310,E,091233.00,A,A*66

$GPRMC,091234.00,A,5522.02411,N,01025.86314,E,0.018,,071116,,,A*7C

$GPVTG,,T,,M,0.018,N,0.034,K,A*2D

$GPGGA,091234.00,5522.02411,N,01025.86314,E,1,06,1.19,43.9,M,43.1,M,,*6E

$GPGSA,A,3,01,22,28,08,32,11,,,,,,,2.00,1.19,1.61*0D

$GPGSV,3,1,10,01,26,266,33,08,72,252,48,10,58,076,15,11,40,277,38*7D

$GPGSV,3,2,10,22,08,216,40,28,18,326,35,30,01,295,,32,24,123,41*7C

$GPGSV,3,3,10,33,23,210,36,40,11,121,33*79

$GPGLL,5522.02411,N,01025.86314,E,091234.00,A,A*6C

$GPRMC,091235.00,A,5522.02423,N,01025.86314,E,0.043,,071116,,,A*72

$GPVTG,,T,,M,0.043,N,0.080,K,A*2C

$GPGGA,091235.00,5522.02423,N,01025.86314,E,1,06,1.19,43.9,M,43.1,M,,*6E

$GPGSA,A,3,01,22,28,08,32,11,,,,,,,2.00,1.19,1.61*0D

$GPGSV,3,1,10,01,26,266,33,08,72,252,48,10,58,076,12,11,40,277,38*7A

$GPGSV,3,2,10,22,08,216,40,28,18,326,35,30,01,295,,32,24,123,41*7C

$GPGSV,3,3,10,33,23,210,36,40,11,121,33*79

$GPGLL,5522.02423,N,01025.86314,E,091235.00,A,A*6C

$GPRMC,091236.00,A,5522.02438,N,01025.86323,E,0.040,,071116,,,A*7C

$GPVTG,,T,,M,0.040,N,0.075,K,A*25

$GPGGA,091236.00,5522.02438,N,01025.86323,E,1,06,1.19,43.7,M,43.1,M,,*6D

$GPGSA,A,3,01,22,28,08,32,11,,,,,,,2.00,1.19,1.61*0D

$GPGSV,3,1,10,01,26,266,33,08,72,252,48,10,58,076,09,11,40,277,38*70

$GPGSV,3,2,10,22,08,216,40,28,18,326,35,30,01,295,,32,24,123,41*7C

$GPGSV,3,3,10,33,23,210,36,40,11,121,33*79

$GPGLL,5522.02438,N,01025.86323,E,091236.00,A,A*61

$GPRMC,091237.00,A,5522.02457,N,01025.86338,E,0.020,,071116,,,A*78

$GPVTG,,T,,M,0.020,N,0.038,K,A*2A

$GPGGA,091237.00,5522.02457,N,01025.86338,E,1,06,1.19,43.1,M,43.1,M,,*69

$GPGSA,A,3,01,22,28,08,32,11,,,,,,,2.00,1.19,1.61*0D

$GPGSV,3,1,10,01,26,266,32,08,72,252,48,10,58,076,13,11,40,277,38*7A

$GPGSV,3,2,10,22,08,216,40,28,18,326,35,30,01,295,,32,24,123,41*7C

$GPGSV,3,3,10,33,23,210,36,40,11,121,33*79

$GPGLL,5522.02457,N,01025.86338,E,091237.00,A,A*63

$GPRMC,091238.00,A,5522.02473,N,01025.86345,E,0.012,,071116,,,A*7A

$GPVTG,,T,,M,0.012,N,0.022,K,A*20

$GPGGA,091238.00,5522.02473,N,01025.86345,E,1,06,1.19,42.8,M,43.1,M,,*62

$GPGSA,A,3,01,22,28,08,32,11,,,,,,,2.00,1.19,1.61*0D

$GPGSV,3,1,10,01,26,266,32,08,72,252,48,10,58,076,16,11,40,277,38*7F

$GPGSV,3,2,10,22,08,216,40,28,18,326,35,30,01,295,,32,24,123,40*7D

$GPGSV,3,3,10,33,23,210,36,40,11,121,33*79

$GPGLL,5522.02473,N,01025.86345,E,091238.00,A,A*60

$GPRMC,091239.00,A,5522.02477,N,01025.86343,E,0.029,,071116,,,A*71

$GPVTG,,T,,M,0.029,N,0.053,K,A*2E

$GPGGA,091239.00,5522.02477,N,01025.86343,E,1,06,1.19,42.8,M,43.1,M,,*61

$GPGSA,A,3,01,22,28,08,32,11,,,,,,,2.00,1.19,1.61*0D

$GPGSV,3,1,10,01,26,266,32,08,72,252,48,10,58,076,18,11,40,277,38*71

$GPGSV,3,2,10,22,08,216,40,28,18,326,35,30,01,295,,32,24,123,40*7D

$GPGSV,3,3,10,33,23,210,36,40,11,121,33*79

$GPGLL,5522.02477,N,01025.86343,E,091239.00,A,A*63

$GPRMC,091240.00,A,5522.02481,N,01025.86344,E,0.021,,071116,,,A*79

$GPVTG,,T,,M,0.021,N,0.039,K,A*2A

$GPGGA,091240.00,5522.02481,N,01025.86344,E,1,06,1.19,42.8,M,43.1,M,,*61

$GPGSA,A,3,01,22,28,08,32,11,,,,,,,2.00,1.19,1.61*0D

$GPGSV,3,1,10,01,26,266,31,08,72,252,48,10,58,076,19,11,40,277,38*73

$GPGSV,3,2,10,22,08,216,40,28,18,326,35,30,01,295,,32,24,123,40*7D

$GPGSV,3,3,10,33,23,210,36,40,11,121,33*79

$GPGLL,5522.02481,N,01025.86344,E,091240.00,A,A*63

$GPRMC,091241.00,A,5522.02493,N,01025.86347,E,0.016,,071116,,,A*7C

$GPVTG,,T,,M,0.016,N,0.029,K,A*2F

$GPGGA,091241.00,5522.02493,N,01025.86347,E,1,06,1.19,42.7,M,43.1,M,,*6F

$GPGSA,A,3,01,22,28,08,32,11,,,,,,,2.00,1.19,1.61*0D

$GPGSV,3,1,10,01,26,266,31,08,72,252,48,10,58,076,19,11,40,277,38*73

$GPGSV,3,2,10,22,08,216,40,28,18,326,34,30,01,295,,32,24,123,40*7C

$GPGSV,3,3,10,33,23,210,36,40,11,121,33*79

$GPGLL,5522.02493,N,01025.86347,E,091241.00,A,A*62

$GPRMC,091242.00,A,5522.02506,N,01025.86358,E,0.022,,071116,,,A*7B

$GPVTG,,T,,M,0.022,N,0.041,K,A*26

$GPGGA,091242.00,5522.02506,N,01025.86358,E,1,06,1.19,42.3,M,43.1,M,,*6B

$GPGSA,A,3,01,22,28,08,32,11,,,,,,,2.00,1.19,1.61*0D

$GPGSV,3,1,10,01,26,266,31,08,72,252,49,10,58,076,18,11,40,277,38*73

$GPGSV,3,2,10,22,08,216,40,28,18,326,34,30,00,295,,32,24,123,39*73

$GPGSV,3,3,10,33,23,210,36,40,11,121,33*79

$GPGLL,5522.02506,N,01025.86358,E,091242.00,A,A*62

$GPRMC,091243.00,A,5522.02518,N,01025.86367,E,0.030,,071116,,,A*7A

$GPVTG,,T,,M,0.030,N,0.055,K,A*20

$GPGGA,091243.00,5522.02518,N,01025.86367,E,1,06,1.19,42.0,M,43.1,M,,*6A

$GPGSA,A,3,01,22,28,08,32,11,,,,,,,2.00,1.19,1.61*0D

$GPGSV,3,1,10,01,26,266,31,08,72,252,49,10,58,076,18,11,40,277,38*73

$GPGSV,3,2,10,22,08,216,40,28,18,326,34,30,00,295,,32,24,123,39*73

$GPGSV,3,3,10,33,23,210,36,40,11,121,33*79

$GPGLL,5522.02518,N,01025.86367,E,091243.00,A,A*60

$GPRMC,091244.00,A,5522.02526,N,01025.86368,E,0.012,,071116,,,A*7F

$GPVTG,,T,,M,0.012,N,0.023,K,A*21

$GPGGA,091244.00,5522.02526,N,01025.86368,E,1,06,1.19,41.8,M,43.1,M,,*64

$GPGSA,A,3,01,22,28,08,32,11,,,,,,,2.01,1.19,1.61*0C

$GPGSV,3,1,10,01,26,266,31,08,72,252,49,10,58,076,18,11,40,277,37*7C

$GPGSV,3,2,10,22,08,216,40,28,18,326,34,30,00,295,,32,24,123,39*73

$GPGSV,3,3,10,33,23,210,36,40,11,121,33*79

$GPGLL,5522.02526,N,01025.86368,E,091244.00,A,A*65

$GPRMC,091245.00,A,5522.02527,N,01025.86363,E,0.024,,071116,,,A*71

$GPVTG,,T,,M,0.024,N,0.045,K,A*24

$GPGGA,091245.00,5522.02527,N,01025.86363,E,1,06,1.19,41.9,M,43.1,M,,*6E

$GPGSA,A,3,01,22,28,08,32,11,,,,,,,2.01,1.19,1.61*0C

$GPGSV,3,1,10,01,26,266,31,08,72,252,49,10,58,076,18,11,40,277,37*7C

$GPGSV,3,2,10,22,08,216,40,28,18,326,34,30,00,295,,32,24,123,39*73

$GPGSV,3,3,10,33,23,210,36,40,11,121,33*79

$GPGLL,5522.02527,N,01025.86363,E,091245.00,A,A*6E

$GPRMC,091246.00,A,5522.02534,N,01025.86358,E,0.104,,071116,,,A*7B

$GPVTG,,T,,M,0.104,N,0.192,K,A*2C

$GPGGA,091246.00,5522.02534,N,01025.86358,E,1,06,1.19,42.0,M,43.1,M,,*6D

$GPGSA,A,3,01,22,28,08,32,11,,,,,,,2.01,1.19,1.61*0C

$GPGSV,3,1,10,01,26,266,30,08,72,252,49,10,58,076,,11,41,277,38*7A

$GPGSV,3,2,10,22,08,216,40,28,18,326,34,30,00,295,,32,24,123,38*72

$GPGSV,3,3,10,33,23,210,36,40,11,121,33*79

$GPGLL,5522.02534,N,01025.86358,E,091246.00,A,A*67

$GPRMC,091247.00,A,5522.02540,N,01025.86358,E,0.012,,071116,,,A*7F

$GPVTG,,T,,M,0.012,N,0.022,K,A*20

$GPGGA,091247.00,5522.02540,N,01025.86358,E,1,06,1.19,41.9,M,43.1,M,,*65

$GPGSA,A,3,01,22,28,08,32,11,,,,,,,2.01,1.19,1.61*0C

$GPGSV,3,1,10,01,26,266,30,08,72,252,48,10,58,076,,11,41,277,38*7B

$GPGSV,3,2,10,22,08,216,40,28,18,326,34,30,00,295,,32,24,123,38*72

$GPGSV,3,3,10,33,23,210,36,40,11,121,33*79

$GPGLL,5522.02540,N,01025.86358,E,091247.00,A,A*65

$GPRMC,091248.00,A,5522.02550,N,01025.86369,E,0.012,,071116,,,A*73

$GPVTG,,T,,M,0.012,N,0.022,K,A*20

$GPGGA,091248.00,5522.02550,N,01025.86369,E,1,06,1.19,41.6,M,43.1,M,,*66

$GPGSA,A,3,01,22,28,08,32,11,,,,,,,2.01,1.19,1.61*0C

$GPGSV,3,1,10,01,26,266,30,08,72,252,48,10,58,076,,11,41,277,38*7B

$GPGSV,3,2,10,22,08,216,40,28,18,326,34,30,00,295,,32,24,123,37*7D

$GPGSV,3,3,10,33,23,210,36,40,11,121,33*79

$GPGLL,5522.02550,N,01025.86369,E,091248.00,A,A*69

$GPRMC,091249.00,A,5522.02558,N,01025.86380,E,0.025,,071116,,,A*79

$GPVTG,,T,,M,0.025,N,0.047,K,A*27

$GPGGA,091249.00,5522.02558,N,01025.86380,E,1,06,1.19,41.4,M,43.1,M,,*6A

$GPGSA,A,3,01,22,28,08,32,11,,,,,,,2.01,1.19,1.61*0C

$GPGSV,3,1,10,01,26,266,30,08,72,252,49,10,58,076,,11,41,277,38*7A

$GPGSV,3,2,10,22,08,216,40,28,18,326,34,30,00,295,,32,24,123,37*7D

$GPGSV,3,3,10,33,23,210,36,40,11,121,33*79

$GPGLL,5522.02558,N,01025.86380,E,091249.00,A,A*67

$GPRMC,091250.00,A,5522.02560,N,01025.86385,E,0.012,,071116,,,A*7B

$GPVTG,,T,,M,0.012,N,0.023,K,A*21

$GPGGA,091250.00,5522.02560,N,01025.86385,E,1,06,1.19,41.4,M,43.1,M,,*6C

$GPGSA,A,3,01,22,28,08,32,11,,,,,,,2.01,1.19,1.61*0C

$GPGSV,3,1,10,01,26,266,30,08,72,252,49,10,58,076,,11,41,277,38*7A

$GPGSV,3,2,10,22,08,216,40,28,18,326,33,30,00,295,,32,24,123,36*7B

$GPGSV,3,3,10,33,23,210,36,40,11,121,33*79

$GPGLL,5522.02560,N,01025.86385,E,091250.00,A,A*61

$GPRMC,091251.00,A,5522.02561,N,01025.86385,E,0.023,,071116,,,A*79

$GPVTG,,T,,M,0.023,N,0.042,K,A*24

$GPGGA,091251.00,5522.02561,N,01025.86385,E,1,06,1.19,41.6,M,43.1,M,,*6E

$GPGSA,A,3,01,22,28,08,32,11,,,,,,,2.01,1.19,1.61*0C

$GPGSV,3,1,10,01,26,266,30,08,72,252,49,10,58,076,,11,41,277,38*7A

$GPGSV,3,2,10,22,08,216,40,28,18,326,33,30,00,295,,32,24,123,36*7B

$GPGSV,3,3,10,33,23,210,36,40,11,121,33*79

$GPGLL,5522.02561,N,01025.86385,E,091251.00,A,A*61

$GPRMC,091252.00,A,5522.02563,N,01025.86390,E,0.040,,071116,,,A*79

$GPVTG,,T,,M,0.040,N,0.074,K,A*24

$GPGGA,091252.00,5522.02563,N,01025.86390,E,1,06,1.19,41.6,M,43.1,M,,*6B

$GPGSA,A,3,01,22,28,08,32,11,,,,,,,2.01,1.19,1.61*0C

$GPGSV,3,1,10,01,26,266,30,08,72,252,49,10,58,076,,11,41,277,38*7A

$GPGSV,3,2,10,22,08,216,40,28,18,326,33,30,00,295,,32,24,123,35*78

$GPGSV,3,3,10,33,23,210,36,40,11,121,33*79

$GPGLL,5522.02563,N,01025.86390,E,091252.00,A,A*64

$GPRMC,091253.00,A,5522.02570,N,01025.86408,E,0.010,,071116,,,A*79

$GPVTG,,T,,M,0.010,N,0.019,K,A*2A

$GPGGA,091253.00,5522.02570,N,01025.86408,E,1,06,1.19,41.4,M,43.1,M,,*6C

$GPGSA,A,3,01,22,28,08,32,11,,,,,,,2.01,1.19,1.61*0C

$GPGSV,3,1,10,01,26,266,30,08,72,252,48,10,58,076,,11,41,277,38*7B

$GPGSV,3,2,10,22,08,216,40,28,18,326,33,30,00,295,,32,24,123,35*78

$GPGSV,3,3,10,33,23,210,36,40,11,121,33*79

$GPGLL,5522.02570,N,01025.86408,E,091253.00,A,A*61

$GPRMC,091254.00,A,5522.02578,N,01025.86427,E,0.003,,071116,,,A*79

$GPVTG,,T,,M,0.003,N,0.005,K,A*25

$GPGGA,091254.00,5522.02578,N,01025.86427,E,1,06,1.19,41.1,M,43.1,M,,*6B

$GPGSA,A,3,01,22,28,08,32,11,,,,,,,2.01,1.19,1.61*0C

$GPGSV,3,1,10,01,26,266,30,08,72,252,48,10,58,076,,11,41,277,38*7B

$GPGSV,3,2,10,22,08,216,40,28,18,326,33,30,00,295,,32,24,123,34*79

$GPGSV,3,3,10,33,23,210,36,40,11,121,33*79

$GPGLL,5522.02578,N,01025.86427,E,091254.00,A,A*63

$GPRMC,091255.00,A,5522.02582,N,01025.86434,E,0.018,,071116,,,A*75

$GPVTG,,T,,M,0.018,N,0.034,K,A*2D

$GPGGA,091255.00,5522.02582,N,01025.86434,E,1,06,1.19,41.1,M,43.1,M,,*6D

$GPGSA,A,3,01,22,28,08,32,11,,,,,,,2.01,1.19,1.61*0C

$GPGSV,3,1,10,01,26,266,30,08,72,252,49,10,58,076,21,11,41,277,37*76

$GPGSV,3,2,10,22,08,216,40,28,18,326,32,30,00,295,,32,24,123,33*7F

$GPGSV,3,3,10,33,23,210,36,40,11,121,33*79

$GPGLL,5522.02582,N,01025.86434,E,091255.00,A,A*65

$GPRMC,091256.00,A,5522.02583,N,01025.86437,E,0.040,,071116,,,A*79

$GPVTG,,T,,M,0.040,N,0.075,K,A*25

$GPGGA,091256.00,5522.02583,N,01025.86437,E,1,06,1.19,41.2,M,43.1,M,,*6F

$GPGSA,A,3,01,22,28,08,32,11,,,,,,,2.01,1.19,1.61*0C

$GPGSV,3,1,10,01,26,266,29,08,72,252,49,10,58,076,21,11,41,277,37*7E

$GPGSV,3,2,10,22,08,216,40,28,18,326,32,30,00,295,,32,24,123,32*7E

$GPGSV,3,3,10,33,23,210,36,40,11,121,33*79

$GPGLL,5522.02583,N,01025.86437,E,091256.00,A,A*64

$GPRMC,091257.00,A,5522.02590,N,01025.86450,E,0.030,,071116,,,A*7C

$GPVTG,,T,,M,0.030,N,0.056,K,A*23

$GPGGA,091257.00,5522.02590,N,01025.86450,E,1,06,1.19,41.1,M,43.1,M,,*6E

$GPGSA,A,3,01,22,28,08,32,11,,,,,,,2.01,1.19,1.61*0C

$GPGSV,3,1,10,01,26,266,29,08,72,252,49,10,58,076,21,11,41,277,37*7E

$GPGSV,3,2,10,22,08,216,40,28,18,326,33,30,00,295,,32,24,123,31*7C

$GPGSV,3,3,10,33,23,210,36,40,11,121,33*79

$GPGLL,5522.02590,N,01025.86450,E,091257.00,A,A*66

$GPRMC,091258.00,A,5522.02595,N,01025.86470,E,0.016,,071116,,,A*70

$GPVTG,,T,,M,0.016,N,0.031,K,A*26

$GPGGA,091258.00,5522.02595,N,01025.86470,E,1,06,1.19,40.8,M,43.1,M,,*6E

$GPGSA,A,3,01,22,28,08,32,11,,,,,,,2.01,1.19,1.61*0C

$GPGSV,3,1,10,01,26,266,29,08,72,252,49,10,58,076,22,11,41,277,37*7D

$GPGSV,3,2,10,22,08,216,40,28,18,326,32,30,00,295,,32,24,123,30*7C

$GPGSV,3,3,10,33,23,210,36,40,11,121,34*7E

$GPGLL,5522.02595,N,01025.86470,E,091258.00,A,A*6E

$GPRMC,091259.00,A,5522.02599,N,01025.86488,E,0.016,,071116,,,A*7A

$GPVTG,,T,,M,0.016,N,0.030,K,A*27

$GPGGA,091259.00,5522.02599,N,01025.86488,E,1,06,1.19,40.7,M,43.1,M,,*6B

$GPGSA,A,3,01,22,28,08,32,11,,,,,,,2.01,1.19,1.61*0C

$GPGSV,3,1,10,01,26,266,28,08,72,252,49,10,58,076,22,11,41,277,37*7C

$GPGSV,3,2,10,22,08,216,41,28,18,326,32,30,00,295,,32,24,123,30*7D

$GPGSV,3,3,10,33,23,210,36,40,11,121,33*79

$GPGLL,5522.02599,N,01025.86488,E,091259.00,A,A*64

$GPRMC,091300.00,A,5522.02600,N,01025.86502,E,0.012,,071116,,,A*73

$GPVTG,,T,,M,0.012,N,0.022,K,A*20

$GPGGA,091300.00,5522.02600,N,01025.86502,E,1,06,1.20,40.7,M,43.1,M,,*6C

$GPGSA,A,3,01,22,28,08,32,11,,,,,,,2.01,1.20,1.61*06

$GPGSV,3,1,10,01,26,266,28,08,72,252,49,10,58,076,22,11,41,277,37*7C

$GPGSV,3,2,10,22,08,216,40,28,18,326,31,30,00,295,,32,24,123,30*7F

$GPGSV,3,3,10,33,23,210,36,40,11,121,33*79

$GPGLL,5522.02600,N,01025.86502,E,091300.00,A,A*69

$GPRMC,091301.00,A,5522.02600,N,01025.86514,E,0.028,,071116,,,A*7C

$GPVTG,,T,,M,0.028,N,0.053,K,A*2F

$GPGGA,091301.00,5522.02600,N,01025.86514,E,1,06,1.20,40.8,M,43.1,M,,*65

$GPGSA,A,3,01,22,28,08,32,11,,,,,,,2.01,1.20,1.61*06

$GPGSV,3,1,10,01,26,266,27,08,72,252,49,10,58,076,20,11,41,277,37*71

$GPGSV,3,2,10,22,08,216,40,28,18,326,31,30,00,295,,32,24,123,30*7F

$GPGSV,3,3,10,33,23,210,36,40,11,121,33*79

$GPGLL,5522.02600,N,01025.86514,E,091301.00,A,A*6F

$GPRMC,091302.00,A,5522.02601,N,01025.86534,E,0.008,,071116,,,A*7E

$GPVTG,,T,,M,0.008,N,0.015,K,A*2F

$GPGGA,091302.00,5522.02601,N,01025.86534,E,1,06,1.20,40.8,M,43.1,M,,*65

$GPGSA,A,3,01,22,28,08,32,11,,,,,,,2.01,1.20,1.61*06

$GPGSV,3,1,10,01,26,266,27,08,72,252,49,10,58,076,19,11,41,277,37*7B

$GPGSV,3,2,10,22,08,216,40,28,18,326,31,30,00,295,,32,24,123,30*7F

$GPGSV,3,3,10,33,23,210,36,40,11,121,33*79

$GPGLL,5522.02601,N,01025.86534,E,091302.00,A,A*6F

$GPRMC,091303.00,A,5522.02604,N,01025.86577,E,0.032,,071116,,,A*74

$GPVTG,,T,,M,0.032,N,0.058,K,A*2F

$GPGGA,091303.00,5522.02604,N,01025.86577,E,1,06,1.20,40.5,M,43.1,M,,*6B

$GPGSA,A,3,01,22,28,08,32,11,,,,,,,2.01,1.20,1.61*06

$GPGSV,3,1,10,01,26,266,27,08,72,252,49,10,58,076,16,11,41,277,38*7B

$GPGSV,3,2,10,22,08,216,40,28,18,326,31,30,00,295,,32,24,123,30*7F

$GPGSV,3,3,10,33,23,210,36,40,11,121,33*79

$GPGLL,5522.02604,N,01025.86577,E,091303.00,A,A*6C

$GPRMC,091304.00,A,5522.02612,N,01025.86615,E,0.098,,071116,,,A*73

$GPVTG,,T,,M,0.098,N,0.181,K,A*2A

$GPGGA,091304.00,5522.02612,N,01025.86615,E,1,06,1.20,40.1,M,43.1,M,,*68

$GPGSA,A,3,01,22,28,08,32,11,,,,,,,2.01,1.20,1.61*06

$GPGSV,3,1,10,01,26,266,27,08,72,252,49,10,58,076,15,11,41,277,37*77

$GPGSV,3,2,10,22,08,216,40,28,18,326,31,30,00,295,,32,24,123,30*7F

$GPGSV,3,3,10,33,23,210,36,40,11,121,33*79

$GPGLL,5522.02612,N,01025.86615,E,091304.00,A,A*6B

$GPRMC,091305.00,A,5522.02612,N,01025.86635,E,0.183,,071116,,,A*7B

$GPVTG,,T,,M,0.183,N,0.339,K,A*20

$GPGGA,091305.00,5522.02612,N,01025.86635,E,1,06,1.20,40.0,M,43.1,M,,*6A

$GPGSA,A,3,01,22,28,08,32,11,,,,,,,2.01,1.20,1.61*06

$GPGSV,3,1,10,01,26,266,28,08,72,252,49,10,58,076,13,11,41,277,37*7E

$GPGSV,3,2,10,22,08,216,40,28,18,326,31,30,00,295,,32,24,123,30*7F

$GPGSV,3,3,10,33,23,210,36,40,11,121,33*79

$GPGLL,5522.02612,N,01025.86635,E,091305.00,A,A*68

$GPRMC,091306.00,A,5522.02611,N,01025.86658,E,0.048,,071116,,,A*76

$GPVTG,,T,,M,0.048,N,0.088,K,A*2F

$GPGGA,091306.00,5522.02611,N,01025.86658,E,1,06,1.20,40.1,M,43.1,M,,*60

$GPGSA,A,3,01,22,28,08,32,11,,,,,,,2.01,1.20,1.61*06

$GPGSV,3,1,10,01,26,266,27,08,72,252,49,10,58,076,,11,41,277,37*73

$GPGSV,3,2,10,22,08,216,40,28,18,326,31,30,00,295,,32,24,123,31*7E

$GPGSV,3,3,10,33,23,210,36,40,11,121,33*79

$GPGLL,5522.02611,N,01025.86658,E,091306.00,A,A*63

$GPRMC,091307.00,A,5522.02610,N,01025.86676,E,0.072,,071116,,,A*73

$GPVTG,,T,,M,0.072,N,0.134,K,A*20

$GPGGA,091307.00,5522.02610,N,01025.86676,E,1,06,1.20,40.1,M,43.1,M,,*6C

$GPGSA,A,3,01,22,28,08,32,11,,,,,,,2.01,1.20,1.61*06

$GPGSV,3,1,10,01,26,266,27,08,72,252,49,10,58,076,,11,41,277,38*7C

$GPGSV,3,2,10,22,08,216,40,28,18,326,31,30,00,295,,32,24,123,31*7E

$GPGSV,3,3,10,33,23,210,36,40,11,121,33*79

$GPGLL,5522.02610,N,01025.86676,E,091307.00,A,A*6F

$GPRMC,091308.00,A,5522.02610,N,01025.86705,E,0.050,,071116,,,A*79

$GPVTG,,T,,M,0.050,N,0.092,K,A*2D

$GPGGA,091308.00,5522.02610,N,01025.86705,E,1,06,1.20,40.0,M,43.1,M,,*67

$GPGSA,A,3,01,22,28,08,32,11,,,,,,,2.01,1.20,1.61*06

$GPGSV,3,1,10,01,26,266,27,08,72,252,49,10,58,076,,11,41,277,38*7C

$GPGSV,3,2,10,22,08,216,40,28,18,326,31,30,00,295,,32,24,123,32*7D

$GPGSV,3,3,10,33,23,210,36,40,11,121,34*7E

$GPGLL,5522.02610,N,01025.86705,E,091308.00,A,A*65

$GPRMC,091309.00,A,5522.02613,N,01025.86750,E,0.021,,071116,,,A*7D

$GPVTG,,T,,M,0.021,N,0.038,K,A*2B

$GPGGA,091309.00,5522.02613,N,01025.86750,E,1,06,1.20,39.7,M,43.1,M,,*6C

$GPGSA,A,3,01,22,28,08,32,11,,,,,,,2.01,1.20,1.61*06

$GPGSV,3,1,10,01,26,266,27,08,72,252,49,10,58,076,22,11,41,277,38*7C

$GPGSV,3,2,10,22,08,216,40,28,18,326,31,30,00,295,,32,24,123,33*7C

$GPGSV,3,3,10,33,23,210,36,40,11,121,34*7E

$GPGLL,5522.02613,N,01025.86750,E,091309.00,A,A*67

$GPRMC,091310.00,A,5522.02615,N,01025.86799,E,0.007,,071116,,,A*72

$GPVTG,,T,,M,0.007,N,0.013,K,A*26

$GPGGA,091310.00,5522.02615,N,01025.86799,E,1,06,1.20,39.4,M,43.1,M,,*64

$GPGSA,A,3,01,22,28,08,32,11,,,,,,,2.01,1.20,1.61*06

$GPGSV,3,1,10,01,26,266,27,08,72,252,49,10,58,076,24,11,41,277,38*7A

$GPGSV,3,2,10,22,08,216,40,28,18,326,31,30,00,295,,32,24,123,34*7B

$GPGSV,3,3,10,33,23,210,36,40,11,121,33*79

$GPGLL,5522.02615,N,01025.86799,E,091310.00,A,A*6C

$GPRMC,091311.00,A,5522.02615,N,01025.86831,E,0.032,,071116,,,A*78

$GPVTG,,T,,M,0.032,N,0.059,K,A*2E

$GPGGA,091311.00,5522.02615,N,01025.86831,E,1,07,1.20,39.2,M,43.1,M,,*6F

$GPGSA,A,3,01,22,28,10,08,32,11,,,,,,2.01,1.20,1.61*07

$GPGSV,3,1,10,01,26,266,27,08,72,252,49,10,58,076,25,11,41,277,38*7B

$GPGSV,3,2,10,22,08,216,40,28,18,326,31,30,00,295,,32,24,123,34*7B

$GPGSV,3,3,10,33,23,210,36,40,11,121,33*79

$GPGLL,5522.02615,N,01025.86831,E,091311.00,A,A*60

$GPRMC,091312.00,A,5522.02620,N,01025.86882,E,0.015,,071116,,,A*70

$GPVTG,,T,,M,0.015,N,0.027,K,A*22

$GPGGA,091312.00,5522.02620,N,01025.86882,E,1,07,1.20,39.0,M,43.1,M,,*60

$GPGSA,A,3,01,22,28,10,08,32,11,,,,,,2.01,1.20,1.61*07

$GPGSV,3,1,10,01,26,266,27,08,72,252,49,10,58,076,25,11,41,277,38*7B

$GPGSV,3,2,10,22,08,216,40,28,18,326,32,30,00,295,,32,24,123,36*7A

$GPGSV,3,3,10,33,23,210,36,40,11,121,33*79

$GPGLL,5522.02620,N,01025.86882,E,091312.00,A,A*6D

$GPRMC,091313.00,A,5522.02619,N,01025.86909,E,0.026,,071116,,,A*79

$GPVTG,,T,,M,0.026,N,0.048,K,A*2B

$GPGGA,091313.00,5522.02619,N,01025.86909,E,1,07,1.20,38.9,M,43.1,M,,*61

$GPGSA,A,3,01,22,28,10,08,32,11,,,,,,2.01,1.20,1.61*07

$GPGSV,3,1,11,01,26,266,27,08,72,252,49,10,58,076,24,11,41,277,38*7B

$GPGSV,3,2,11,18,,,34,22,08,216,40,28,18,326,31,30,00,295,*44

$GPGSV,3,3,11,32,24,123,36,33,23,210,36,40,11,121,33*4A

$GPGLL,5522.02619,N,01025.86909,E,091313.00,A,A*64

$GPRMC,091314.00,A,5522.02618,N,01025.86907,E,0.030,,071116,,,A*76

$GPVTG,,T,,M,0.030,N,0.055,K,A*20

$GPGGA,091314.00,5522.02618,N,01025.86907,E,1,07,1.20,38.9,M,43.1,M,,*69

$GPGSA,A,3,01,22,28,10,08,32,11,,,,,,2.01,1.20,1.62*04

$GPGSV,3,1,11,01,26,266,27,08,72,252,49,10,58,076,22,11,41,277,38*7D

$GPGSV,3,2,11,18,,,34,22,08,216,40,28,18,326,32,30,00,295,*47

$GPGSV,3,3,11,32,24,123,37,33,23,210,36,40,11,121,33*4B

$GPGLL,5522.02618,N,01025.86907,E,091314.00,A,A*6C

$GPRMC,091315.00,A,5522.02617,N,01025.86894,E,0.029,,071116,,,A*7B

$GPVTG,,T,,M,0.029,N,0.053,K,A*2E

$GPGGA,091315.00,5522.02617,N,01025.86894,E,1,07,1.20,38.6,M,43.1,M,,*63

$GPGSA,A,3,01,22,28,10,08,32,11,,,,,,2.01,1.20,1.62*04

$GPGSV,3,1,11,01,26,266,27,08,72,252,49,10,58,076,21,11,41,277,38*7E

$GPGSV,3,2,11,18,,,34,22,08,216,40,28,18,326,32,30,00,295,*47

$GPGSV,3,3,11,32,24,123,37,33,23,210,36,40,11,121,33*4B

$GPGLL,5522.02617,N,01025.86894,E,091315.00,A,A*69

$GPRMC,091316.00,A,5522.02618,N,01025.86855,E,0.292,,071116,,,A*78

$GPVTG,,T,,M,0.292,N,0.540,K,A*2B

$GPGGA,091316.00,5522.02618,N,01025.86855,E,1,06,1.20,38.4,M,43.1,M,,*61

$GPGSA,A,3,01,22,28,08,32,11,,,,,,,2.01,1.20,1.62*05

$GPGSV,3,1,11,01,26,266,27,08,72,252,49,10,58,076,,11,41,277,38*7D

$GPGSV,3,2,11,18,,,34,22,08,216,40,28,18,326,32,30,00,295,*47

$GPGSV,3,3,11,32,24,123,38,33,23,210,36,40,11,121,33*44

$GPGLL,5522.02618,N,01025.86855,E,091316.00,A,A*68

$GPRMC,091317.00,A,5522.02611,N,01025.86825,E,0.085,,071116,,,A*73

$GPVTG,,T,,M,0.085,N,0.158,K,A*22

$GPGGA,091317.00,5522.02611,N,01025.86825,E,1,06,1.20,38.6,M,43.1,M,,*6C

$GPGSA,A,3,01,22,28,08,32,11,,,,,,,2.01,1.20,1.62*05

$GPGSV,3,1,11,01,26,266,27,08,72,252,49,10,58,076,,11,41,277,38*7D

$GPGSV,3,2,11,18,,,34,22,08,216,40,28,18,326,32,30,00,295,*47

$GPGSV,3,3,11,32,24,123,38,33,23,210,36,40,11,121,33*44

$GPGLL,5522.02611,N,01025.86825,E,091317.00,A,A*67

$GPRMC,091318.00,A,5522.02601,N,01025.86800,E,0.009,,071116,,,A*7E

$GPVTG,,T,,M,0.009,N,0.017,K,A*2C

$GPGGA,091318.00,5522.02601,N,01025.86800,E,1,06,1.20,38.8,M,43.1,M,,*6B

$GPGSA,A,3,01,22,28,08,32,11,,,,,,,2.01,1.20,1.62*05

$GPGSV,3,1,11,01,26,266,27,08,72,252,49,10,58,076,,11,41,277,38*7D

$GPGSV,3,2,11,18,,,34,22,08,216,40,28,18,326,32,30,00,295,*47

$GPGSV,3,3,11,32,24,123,38,33,23,210,36,40,11,121,33*44

$GPGLL,5522.02601,N,01025.86800,E,091318.00,A,A*6E

$GPRMC,091319.00,A,5522.02588,N,01025.86775,E,0.027,,071116,,,A*7C

$GPVTG,,T,,M,0.027,N,0.049,K,A*2B

$GPGGA,091319.00,5522.02588,N,01025.86775,E,1,06,1.20,39.1,M,43.1,M,,*6D

$GPGSA,A,3,01,22,28,08,32,11,,,,,,,2.01,1.20,1.62*05

$GPGSV,3,1,11,01,26,266,27,08,72,252,49,10,58,076,,11,41,277,38*7D

$GPGSV,3,2,11,18,,,35,22,08,216,40,28,18,326,32,30,00,295,*46

$GPGSV,3,3,11,32,24,123,38,33,23,210,36,40,11,121,33*44

$GPGLL,5522.02588,N,01025.86775,E,091319.00,A,A*60

$GPRMC,091320.00,A,5522.02578,N,01025.86729,E,0.041,,071116,,,A*70

$GPVTG,,T,,M,0.041,N,0.076,K,A*27

$GPGGA,091320.00,5522.02578,N,01025.86729,E,1,06,1.20,39.3,M,43.1,M,,*63

$GPGSA,A,3,01,22,28,08,32,11,,,,,,,2.01,1.20,1.62*05

$GPGSV,3,1,11,01,26,266,27,08,72,252,49,10,58,076,,11,41,277,38*7D

$GPGSV,3,2,11,18,,,35,22,08,216,40,28,18,326,32,30,00,295,*46

$GPGSV,3,3,11,32,24,123,39,33,23,210,36,40,11,121,33*45

$GPGLL,5522.02578,N,01025.86729,E,091320.00,A,A*6C

$GPRMC,091321.00,A,5522.02568,N,01025.86687,E,0.027,,071116,,,A*75

$GPVTG,,T,,M,0.027,N,0.050,K,A*23

$GPGGA,091321.00,5522.02568,N,01025.86687,E,1,06,1.20,39.5,M,43.1,M,,*60

$GPGSA,A,3,01,22,28,08,32,11,,,,,,,2.01,1.20,1.62*05

$GPGSV,3,1,11,01,26,266,27,08,72,252,49,10,58,076,,11,41,277,38*7D

$GPGSV,3,2,11,18,,,35,22,08,216,40,28,18,326,32,30,00,295,*46

$GPGSV,3,3,11,32,24,123,39,33,23,210,36,40,11,121,33*45

$GPGLL,5522.02568,N,01025.86687,E,091321.00,A,A*69

$GPRMC,091322.00,A,5522.02554,N,01025.86656,E,0.028,,071116,,,A*7A

$GPVTG,,T,,M,0.028,N,0.051,K,A*2D

$GPGGA,091322.00,5522.02554,N,01025.86656,E,1,06,1.20,39.8,M,43.1,M,,*6D

$GPGSA,A,3,01,22,28,08,32,11,,,,,,,2.01,1.20,1.62*05

$GPGSV,3,1,11,01,26,266,27,08,72,252,49,10,58,076,,11,41,277,38*7D

$GPGSV,3,2,11,18,,,35,22,08,216,40,28,18,326,31,30,00,295,*45

$GPGSV,3,3,11,32,24,123,39,33,23,210,36,40,11,121,33*45

$GPGLL,5522.02554,N,01025.86656,E,091322.00,A,A*69

$GPRMC,091323.00,A,5522.02543,N,01025.86640,E,0.038,,071116,,,A*7B

$GPVTG,,T,,M,0.038,N,0.071,K,A*2E

$GPGGA,091323.00,5522.02543,N,01025.86640,E,1,06,1.20,40.2,M,43.1,M,,*69

$GPGSA,A,3,01,22,28,08,32,11,,,,,,,2.01,1.20,1.62*05

$GPGSV,3,1,11,01,26,266,27,08,72,252,49,10,58,076,,11,41,277,38*7D

$GPGSV,3,2,11,18,,,35,22,08,216,40,28,18,326,32,30,00,295,*46

$GPGSV,3,3,11,32,24,123,39,33,23,210,36,40,11,121,33*45

$GPGLL,5522.02543,N,01025.86640,E,091323.00,A,A*69

$GPRMC,091324.00,A,5522.02528,N,01025.86627,E,0.040,,071116,,,A*7F

$GPVTG,,T,,M,0.040,N,0.074,K,A*24

$GPGGA,091324.00,5522.02528,N,01025.86627,E,1,06,1.20,40.4,M,43.1,M,,*64

$GPGSA,A,3,01,22,28,08,32,11,,,,,,,2.01,1.20,1.62*05

$GPGSV,3,1,11,01,26,266,27,08,72,252,49,10,58,076,,11,41,277,38*7D

$GPGSV,3,2,11,18,,,36,22,08,216,40,28,18,326,31,30,00,295,*46

$GPGSV,3,3,11,32,24,123,39,33,23,210,36,40,11,121,33*45

$GPGLL,5522.02528,N,01025.86627,E,091324.00,A,A*62

$GPRMC,091325.00,A,5522.02515,N,01025.86619,E,0.032,,071116,,,A*78

$GPVTG,,T,,M,0.032,N,0.058,K,A*2F

$GPGGA,091325.00,5522.02515,N,01025.86619,E,1,06,1.20,40.4,M,43.1,M,,*66

$GPGSA,A,3,01,22,28,08,32,11,,,,,,,2.01,1.20,1.62*05

$GPGSV,3,1,11,01,26,266,26,08,72,252,49,10,58,076,,11,41,277,38*7C

$GPGSV,3,2,11,18,,,36,22,08,216,40,28,18,326,31,30,00,295,*46

$GPGSV,3,3,11,32,24,123,39,33,23,210,36,40,11,121,33*45

$GPGLL,5522.02515,N,01025.86619,E,091325.00,A,A*60

$GPRMC,091326.00,A,5522.02505,N,01025.86606,E,0.022,,071116,,,A*75

$GPVTG,,T,,M,0.022,N,0.040,K,A*27

$GPGGA,091326.00,5522.02505,N,01025.86606,E,1,06,1.20,40.4,M,43.1,M,,*6A

$GPGSA,A,3,01,22,28,08,32,11,,,,,,,2.01,1.20,1.62*05

$GPGSV,3,1,11,01,26,266,27,08,72,252,49,10,58,076,,11,41,277,38*7D

$GPGSV,3,2,11,18,,,36,22,08,216,40,28,18,326,31,30,00,295,*46

$GPGSV,3,3,11,32,24,123,39,33,23,210,36,40,11,121,33*45

$GPGLL,5522.02505,N,01025.86606,E,091326.00,A,A*6C

$GPRMC,091327.00,A,5522.02493,N,01025.86595,E,0.028,,071116,,,A*79

$GPVTG,,T,,M,0.028,N,0.051,K,A*2D

$GPGGA,091327.00,5522.02493,N,01025.86595,E,1,06,1.20,40.4,M,43.1,M,,*6C

$GPGSA,A,3,01,22,28,08,32,11,,,,,,,2.01,1.20,1.62*05

$GPGSV,3,1,11,01,26,266,26,08,72,252,49,10,58,076,,11,41,277,38*7C

$GPGSV,3,2,11,18,,,36,22,08,216,40,28,18,326,31,30,00,295,*46

$GPGSV,3,3,11,32,24,123,39,33,23,210,36,40,11,121,34*42

$GPGLL,5522.02493,N,01025.86595,E,091327.00,A,A*6A

$GPRMC,091328.00,A,5522.02477,N,01025.86575,E,0.031,,071116,,,A*7A

$GPVTG,,T,,M,0.031,N,0.057,K,A*23

$GPGGA,091328.00,5522.02477,N,01025.86575,E,1,06,1.20,40.8,M,43.1,M,,*6B

$GPGSA,A,3,01,22,28,08,32,11,,,,,,,2.01,1.20,1.62*05

$GPGSV,3,1,11,01,26,266,27,08,72,252,49,10,58,076,,11,41,277,38*7D

$GPGSV,3,2,11,18,,,36,22,08,216,40,28,18,326,32,30,00,295,*45

$GPGSV,3,3,11,32,24,123,40,33,23,210,36,40,11,121,34*4C

$GPGLL,5522.02477,N,01025.86575,E,091328.00,A,A*61

$GPRMC,091329.00,A,5522.02454,N,01025.86549,E,0.038,,071116,,,A*7C

$GPVTG,,T,,M,0.038,N,0.070,K,A*2F

$GPGGA,091329.00,5522.02454,N,01025.86549,E,1,06,1.20,41.3,M,43.1,M,,*6E

$GPGSA,A,3,01,22,28,08,32,11,,,,,,,2.01,1.20,1.62*05

$GPGSV,3,1,11,01,26,266,26,08,72,252,49,10,58,076,,11,41,277,38*7C

$GPGSV,3,2,11,18,,,36,22,08,216,40,28,18,326,31,30,00,295,*46

$GPGSV,3,3,11,32,24,123,40,33,23,210,36,40,11,121,33*4B

$GPGLL,5522.02454,N,01025.86549,E,091329.00,A,A*6E

$GPRMC,091330.00,A,5522.02436,N,01025.86521,E,0.018,,071116,,,A*7C

$GPVTG,,T,,M,0.018,N,0.034,K,A*2D

$GPGGA,091330.00,5522.02436,N,01025.86521,E,1,06,1.20,41.6,M,43.1,M,,*69

$GPGSA,A,3,01,22,28,08,32,11,,,,,,,2.01,1.20,1.62*05

$GPGSV,3,1,11,01,26,266,26,08,72,252,49,10,58,076,,11,41,277,38*7C

$GPGSV,3,2,11,18,,,36,22,08,216,40,28,18,326,32,30,00,295,*45

$GPGSV,3,3,11,32,24,123,40,33,23,210,36,40,11,121,33*4B

$GPGLL,5522.02436,N,01025.86521,E,091330.00,A,A*6C

