$GPRMC,,V,,,,,,,,,,N*53

$GPVTG,,,,,,,,,N*30

$GPGGA,,,,,,0,00,99.99,,,,,,*48

$GPGSA,A,1,,,,,,,,,,,,,99.99,99.99,99.99*30

$GPGSV,1,1,00*79

$GPGLL,,,,,,V,N*64

$GPRMC,,V,,,,,,,,,,N*53

$GPVTG,,,,,,,,,N*30

$GPGGA,,,,,,0,00,99.99,,,,,,*48

$GPGSA,A,1,,,,,,,,,,,,,99.99,99.99,99.99*30

$GPGSV,1,1,00*79

$GPGLL,,,,,,V,N*64

$GPTXT,01,01,02,ANTSTATUS=INIT*25

$GPRMC,,V,,,,,,,,,,N*53

$GPVTG,,,,,,,,,N*30

$GPGGA,,,,,,0,00,99.99,,,,,,*48

$GPGSA,A,1,,,,,,,,,,,,,99.99,99.99,99.99*30

$GPGSV,1,1,00*79

$GPGLL,,,,,,V,N*64

$GPTXT,01,01,02,ANTSTATUS=OK*3B

$GPTXT,01,01,02,u-blox ag - www.u-blox.com*50

$GPTXT,01,01,02,HW  UBX-G60xx  00040007 FF7FFFF3p*26

$GPTXT,01,01,02,ROM CORE 6.02 (36023) Oct 15 2009 16:52:08*56

$GPTXT,01,01,02,ANTSUPERV=AC SD PDoS SR*20

$GPTXT,01,01,02,ANTSTATUS=OK*3B

$GPRMC,,V,,,,,,,,,,N*53

$GPVTG,,,,,,,,,N*30

$GPGGA,,,,,,0,00,99.99,,,,,,*48

$GPGSA,A,1,,,,,,,,,,,,,99.99,99.99,99.99*30

$GPGSV,1,1,01,08,,,48*7C

$GPGLL,,,,,,V,N*64

$GPRMC,,V,,,,,,,,,,N*53

$GPVTG,,,,,,,,,N*30

$GPGGA,,,,,,0,00,99.99,,,,,,*48

$GPGSA,A,1,,,,,,,,,,,,,99.99,99.99,99.99*30

$GPGSV,1,1,01,08,,,49*7D

$GPGLL,,,,,,V,N*64

$GPRMC,,V,,,,,,,,,,N*53

$GPVTG,,,,,,,,,N*30

$GPGGA,,,,,,0,00,99.99,,,,,,*48

$GPGSA,A,1,,,,,,,,,,,,,99.99,99.99,99.99*30

$GPGSV,1,1,03,08,,,49,22,,,39,33,,,36*70

$GPGLL,,,,,,V,N*64

$GPRMC,,V,,,,,,,,,,N*53

$GPVTG,,,,,,,,,N*30

$GPGGA,,,,,,0,00,99.99,,,,,,*48

$GPGSA,A,1,,,,,,,,,,,,,99.99,99.99,99.99*30

$GPGSV,1,1,04,08,,,49,11,,,38,22,,,39,33,,,35*7F

$GPGLL,,,,,,V,N*64

$GPRMC,,V,,,,,,,,,,N*53

$GPVTG,,,,,,,,,N*30

$GPGGA,,,,,,0,00,99.99,,,,,,*48

$GPGSA,A,1,,,,,,,,,,,,,99.99,99.99,99.99*30

$GPGSV,2,1,06,01,,,27,08,,,49,11,,,38,18,,,37*7B

$GPGSV,2,2,06,22,,,39,33,,,36*70

$GPGLL,,,,,,V,N*64

$GPRMC,,V,,,,,,,,,,N*53

$GPVTG,,,,,,,,,N*30

$GPGGA,,,,,,0,00,99.99,,,,,,*48

$GPGSA,A,1,,,,,,,,,,,,,99.99,99.99,99.99*30

$GPGSV,2,1,05,08,,,49,11,,,38,18,,,37,22,,,39*76

$GPGSV,2,2,05,33,,,36*79

$GPGLL,,,,,,V,N*64

$GPRMC,,V,,,,,,,,,,N*53

$GPVTG,,,,,,,,,N*30

$GPGGA,,,,,,0,00,99.99,,,,,,*48

$GPGSA,A,1,,,,,,,,,,,,,99.99,99.99,99.99*30

$GPGSV,2,1,05,08,,,49,11,,,38,18,,,37,22,,,39*76

$GPGSV,2,2,05,33,,,36*79

$GPGLL,,,,,,V,N*64

$GPRMC,,V,,,,,,,,,,N*53

$GPVTG,,,,,,,,,N*30

$GPGGA,,,,,,0,00,99.99,,,,,,*48

$GPGSA,A,1,,,,,,,,,,,,,99.99,99.99,99.99*30

$GPGSV,2,1,05,08,,,49,11,,,38,18,,,37,22,,,39*76

$GPGSV,2,2,05,33,,,36*79

$GPGLL,,,,,,V,N*64

$GPRMC,,V,,,,,,,,,,N*53

$GPVTG,,,,,,,,,N*30

$GPGGA,,,,,,0,00,99.99,,,,,,*48

$GPGSA,A,1,,,,,,,,,,,,,99.99,99.99,99.99*30

$GPGSV,2,1,05,08,,,49,11,,,38,18,,,37,22,,,39*76

$GPGSV,2,2,05,33,,,36*79

$GPGLL,,,,,,V,N*64

$GPRMC,,V,,,,,,,,,,N*53

$GPVTG,,,,,,,,,N*30

$GPGGA,,,,,,0,00,99.99,,,,,,*48

$GPGSA,A,1,,,,,,,,,,,,,99.99,99.99,99.99*30

$GPGSV,2,1,05,08,,,49,11,,,38,18,,,37,22,,,39*76

$GPGSV,2,2,05,33,,,36*79

$GPGLL,,,,,,V,N*64

$GPRMC,,V,,,,,,,,,,N*53

$GPVTG,,,,,,,,,N*30

$GPGGA,,,,,,0,00,99.99,,,,,,*48

$GPGSA,A,1,,,,,,,,,,,,,99.99,99.99,99.99*30

$GPGSV,2,1,06,07,,,27,08,,,49,11,,,38,18,,,37*7D

$GPGSV,2,2,06,22,,,39,33,,,36*70

$GPGLL,,,,,,V,N*64

$GPRMC,091416.94,V,,,,,,,071116,,,N*7B

$GPVTG,,,,,,,,,N*30

$GPGGA,091416.94,,,,,0,00,99.99,,,,,,*60

$GPGSA,A,1,,,,,,,,,,,,,99.99,99.99,99.99*30

$GPGSV,2,1,05,08,,,49,11,,,38,18,,,37,22,,,39*76

$GPGSV,2,2,05,33,,,36*79

$GPGLL,,,,,091416.94,V,N*4C

$GPRMC,091417.00,V,,,,,,,071116,,,N*77

$GPVTG,,,,,,,,,N*30

$GPGGA,091417.00,,,,,0,00,99.99,,,,,,*6C

$GPGSA,A,1,,,,,,,,,,,,,99.99,99.99,99.99*30

$GPGSV,2,1,05,08,,,49,11,,,38,18,,,37,22,,,39*76

$GPGSV,2,2,05,33,,,36*79

$GPGLL,,,,,091417.00,V,N*40

$GPRMC,091418.00,V,,,,,,,071116,,,N*78

$GPVTG,,,,,,,,,N*30

$GPGGA,091418.00,,,,,0,00,99.99,,,,,,*63

$GPGSA,A,1,,,,,,,,,,,,,99.99,99.99,99.99*30

$GPGSV,2,1,06,05,,,24,08,,,49,11,,,38,18,,,37*7C

$GPGSV,2,2,06,22,,,39,33,,,36*70

$GPGLL,,,,,091418.00,V,N*4F

$GPRMC,091419.00,V,,,,,,,071116,,,N*79

$GPVTG,,,,,,,,,N*30

$GPGGA,091419.00,,,,,0,00,99.99,,,,,,*62

$GPGSA,A,1,,,,,,,,,,,,,99.99,99.99,99.99*30

$GPGSV,2,1,07,05,,,20,08,,,49,10,,,29,11,,,38*7E

$GPGSV,2,2,07,18,,,37,22,,,39,33,,,36*7C

$GPGLL,,,,,091419.00,V,N*4E

$GPRMC,091420.00,V,,,,,,,071116,,,N*73

$GPVTG,,,,,,,,,N*30

$GPGGA,091420.00,,,,,0,00,99.99,,,,,,*68

$GPGSA,A,1,,,,,,,,,,,,,99.99,99.99,99.99*30

$GPGSV,2,1,07,05,,,13,08,,,49,10,,,28,11,,,38*7F

$GPGSV,2,2,07,18,,,37,22,,,39,33,,,36*7C

$GPGLL,,,,,091420.00,V,N*44

$GPRMC,091421.00,V,,,,,,,071116,,,N*72

$GPVTG,,,,,,,,,N*30

$GPGGA,091421.00,,,,,0,00,99.99,,,,,,*69

$GPGSA,A,1,,,,,,,,,,,,,99.99,99.99,99.99*30

$GPGSV,3,1,09,05,,,09,08,,,49,10,,,26,11,,,38*75

$GPGSV,3,2,09,15,,,28,16,,,28,18,,,37,22,,,39*75

$GPGSV,3,3,09,33,,,36*75

$GPGLL,,,,,091421.00,V,N*45

$GPRMC,091422.00,V,,,,,,,071116,,,N*71

$GPVTG,,,,,,,,,N*30

$GPGGA,091422.00,,,,,0,00,99.99,,,,,,*6A

$GPGSA,A,1,,,,,,,,,,,,,99.99,99.99,99.99*30

$GPGSV,2,1,07,08,,,49,10,,,25,11,,,38,18,,,37*78

$GPGSV,2,2,07,22,,,39,32,,,26,33,,,36*74

$GPGLL,,,,,091422.00,V,N*46

$GPRMC,091423.00,V,,,,,,,071116,,,N*70

$GPVTG,,,,,,,,,N*30

$GPGGA,091423.00,,,,,0,00,99.99,,,,,,*6B

$GPGSA,A,1,,,,,,,,,,,,,99.99,99.99,99.99*30

$GPGSV,2,1,07,08,,,49,10,,,24,11,,,38,18,,,37*79

$GPGSV,2,2,07,22,,,39,32,,,27,33,,,36*75

$GPGLL,,,,,091423.00,V,N*47

$GPRMC,091424.00,V,,,,,,,071116,,,N*77

$GPVTG,,,,,,,,,N*30

$GPGGA,091424.00,,,,,0,00,99.99,,,,,,*6C

$GPGSA,A,1,,,,,,,,,,,,,99.99,99.99,99.99*30

$GPGSV,2,1,07,08,,,49,10,,,23,11,,,38,18,,,36*7F

$GPGSV,2,2,07,22,,,39,32,,,28,33,,,36*7A

$GPGLL,,,,,091424.00,V,N*40

$GPRMC,091425.00,V,,,,,,,071116,,,N*76

$GPVTG,,,,,,,,,N*30

$GPGGA,091425.00,,,,,0,00,99.99,,,,,,*6D

$GPGSA,A,1,,,,,,,,,,,,,99.99,99.99,99.99*30

$GPGSV,2,1,07,08,,,49,10,,,23,11,,,38,18,,,36*7F

$GPGSV,2,2,07,22,,,39,32,,,29,33,,,36*7B

$GPGLL,,,,,091425.00,V,N*41

$GPRMC,091426.00,V,,,,,,,071116,,,N*75

$GPVTG,,,,,,,,,N*30

$GPGGA,091426.00,,,,,0,00,99.99,,,,,,*6E

$GPGSA,A,1,,,,,,,,,,,,,99.99,99.99,99.99*30

$GPGSV,2,1,07,08,,,49,10,,,21,11,,,38,18,,,36*7D

$GPGSV,2,2,07,22,,,39,32,,,30,33,,,36*73

$GPGLL,,,,,091426.00,V,N*42

$GPRMC,091427.00,V,,,,,,,071116,,,N*74

$GPVTG,,,,,,,,,N*30

$GPGGA,091427.00,,,,,0,00,99.99,,,,,,*6F

$GPGSA,A,1,,,,,,,,,,,,,99.99,99.99,99.99*30

$GPGSV,2,1,07,08,,,49,10,,,18,11,,,38,18,,,36*77

$GPGSV,2,2,07,22,,,39,32,,,31,33,,,36*72

$GPGLL,,,,,091427.00,V,N*43

$GPRMC,091428.00,V,,,,,,,071116,,,N*7B

$GPVTG,,,,,,,,,N*30

$GPGGA,091428.00,,,,,0,00,99.99,,,,,,*60

$GPGSA,A,1,,,,,,,,,,,,,99.99,99.99,99.99*30

$GPGSV,2,1,07,08,,,49,10,,,11,11,,,38,18,,,36*7E

$GPGSV,2,2,07,22,,,39,32,,,32,33,,,36*71

$GPGLL,,,,,091428.00,V,N*4C

$GPRMC,091429.00,V,,,,,,,071116,,,N*7A

$GPVTG,,,,,,,,,N*30

$GPGGA,091429.00,,,,,0,00,99.99,,,,,,*61

$GPGSA,A,1,,,,,,,,,,,,,99.99,99.99,99.99*30

$GPGSV,2,1,06,08,,,49,11,,,38,18,,,36,22,,,39*74

$GPGSV,2,2,06,32,,,36,33,,,36*7E

$GPGLL,,,,,091429.00,V,N*4D

$GPRMC,091430.00,V,,,,,,,071116,,,N*72

$GPVTG,,,,,,,,,N*30

$GPGGA,091430.00,,,,,0,00,99.99,,,,,,*69

$GPGSA,A,1,,,,,,,,,,,,,99.99,99.99,99.99*30

$GPGSV,2,1,06,08,,,49,11,,,38,18,,,36,22,,,40*7A

$GPGSV,2,2,06,32,,,36,33,,,36*7E

$GPGLL,,,,,091430.00,V,N*45

$GPRMC,091431.00,V,,,,,,,071116,,,N*73

$GPVTG,,,,,,,,,N*30

$GPGGA,091431.00,,,,,0,00,99.99,,,,,,*68

$GPGSA,A,1,,,,,,,,,,,,,99.99,99.99,99.99*30

$GPGSV,2,1,07,08,,,49,11,,,38,18,,,35,22,,,40*78

$GPGSV,2,2,07,26,,,30,32,,,37,33,,,36*79

$GPGLL,,,,,091431.00,V,N*44

$GPRMC,091432.00,V,,,,,,,071116,,,N*70

$GPVTG,,,,,,,,,N*30

$GPGGA,091432.00,,,,,0,00,99.99,,,,,,*6B

$GPGSA,A,1,,,,,,,,,,,,,99.99,99.99,99.99*30

$GPGSV,2,1,06,08,,,49,11,,,38,18,,,35,22,,,40*79

$GPGSV,2,2,06,32,,,37,33,,,36*7F

$GPGLL,,,,,091432.00,V,N*47

$GPRMC,091433.01,A,5522.02518,N,01025.86718,E,0.555,,071116,,,A*70

$GPVTG,,T,,M,0.555,N,1.027,K,A*22

$GPGGA,091433.01,5522.02518,N,01025.86718,E,1,04,2.27,28.1,M,43.1,M,,*67

$GPGSA,A,3,22,18,08,11,,,,,,,,,3.14,2.27,2.17*06

$GPGSV,2,1,06,08,72,248,49,11,41,277,38,18,26,056,35,22,09,216,40*7E

$GPGSV,2,2,06,32,,,37,33,23,210,36*4D

$GPGLL,5522.02518,N,01025.86718,E,091433.01,A,A*6C

$GPRMC,091434.00,A,5522.02546,N,01025.86673,E,0.333,,071116,,,A*77

$GPVTG,,T,,M,0.333,N,0.616,K,A*21

$GPGGA,091434.00,5522.02546,N,01025.86673,E,1,04,2.27,27.9,M,43.1,M,,*61

$GPGSA,A,3,22,18,08,11,,,,,,,,,3.14,2.27,2.17*06

$GPGSV,2,1,06,08,72,248,49,11,41,277,38,18,26,056,35,22,09,216,40*7E

$GPGSV,2,2,06,32,,,37,33,23,210,36*4D

$GPGLL,5522.02546,N,01025.86673,E,091434.00,A,A*6D

$GPRMC,091435.00,A,5522.02587,N,01025.86626,E,0.276,,071116,,,A*7B

$GPVTG,,T,,M,0.276,N,0.512,K,A*26

$GPGGA,091435.00,5522.02587,N,01025.86626,E,1,04,2.27,27.7,M,43.1,M,,*63

$GPGSA,A,3,22,18,08,11,,,,,,,,,3.14,2.27,2.17*06

$GPGSV,2,1,06,08,72,248,49,11,41,277,38,18,26,056,35,22,09,216,40*7E

$GPGSV,2,2,06,32,,,38,33,23,210,36*42

$GPGLL,5522.02587,N,01025.86626,E,091435.00,A,A*61

$GPRMC,091436.00,A,5522.02613,N,01025.86610,E,0.293,,071116,,,A*78

$GPVTG,,T,,M,0.293,N,0.543,K,A*29

$GPGGA,091436.00,5522.02613,N,01025.86610,E,1,04,2.27,27.8,M,43.1,M,,*64

$GPGSA,A,3,22,18,08,11,,,,,,,,,3.14,2.27,2.17*06

$GPGSV,2,1,06,08,72,248,49,11,41,277,37,18,26,056,35,22,09,216,40*71

$GPGSV,2,2,06,32,,,38,33,23,210,36*42

$GPGLL,5522.02613,N,01025.86610,E,091436.00,A,A*69

$GPRMC,091437.00,A,5522.02629,N,01025.86601,E,0.251,,071116,,,A*7E

$GPVTG,,T,,M,0.251,N,0.464,K,A*23

$GPGGA,091437.00,5522.02629,N,01025.86601,E,1,04,2.27,27.7,M,43.1,M,,*63

$GPGSA,A,3,22,18,08,11,,,,,,,,,3.14,2.27,2.17*06

$GPGSV,2,1,07,08,72,248,49,11,41,277,37,18,26,056,35,22,09,216,40*70

$GPGSV,2,2,07,30,,,28,32,,,38,33,23,210,36*4A

$GPGLL,5522.02629,N,01025.86601,E,091437.00,A,A*61

$GPRMC,091438.00,A,5522.02654,N,01025.86576,E,0.159,,071116,,,A*73

$GPVTG,,T,,M,0.159,N,0.294,K,A*21

$GPGGA,091438.00,5522.02654,N,01025.86576,E,1,04,2.27,27.6,M,43.1,M,,*64

$GPGSA,A,3,22,18,08,11,,,,,,,,,3.14,2.27,2.17*06

$GPGSV,2,1,06,08,72,248,49,11,41,277,38,18,26,056,35,22,09,216,40*7E

$GPGSV,2,2,06,32,,,38,33,23,210,35*41

$GPGLL,5522.02654,N,01025.86576,E,091438.00,A,A*67

$GPRMC,091439.00,A,5522.02684,N,01025.86540,E,0.177,,071116,,,A*76

$GPVTG,,T,,M,0.177,N,0.328,K,A*2B

$GPGGA,091439.00,5522.02684,N,01025.86540,E,1,04,2.27,27.4,M,43.1,M,,*6F

$GPGSA,A,3,22,18,08,11,,,,,,,,,3.14,2.27,2.17*06

$GPGSV,2,1,07,08,72,248,49,11,41,277,37,18,26,056,34,22,09,216,40*71

$GPGSV,2,2,07,31,,,28,32,,,38,33,23,210,36*4B

$GPGLL,5522.02684,N,01025.86540,E,091439.00,A,A*6E

$GPRMC,091440.00,A,5522.02713,N,01025.86506,E,0.395,,071116,,,A*7B

$GPVTG,,T,,M,0.395,N,0.731,K,A*29

$GPGGA,091440.00,5522.02713,N,01025.86506,E,1,04,2.27,27.3,M,43.1,M,,*6B

$GPGSA,A,3,22,18,08,11,,,,,,,,,3.14,2.27,2.17*06

$GPGSV,2,1,06,08,72,248,49,11,41,277,38,18,26,056,34,22,09,216,41*7E

$GPGSV,2,2,06,32,,,37,33,23,210,36*4D

$GPGLL,5522.02713,N,01025.86506,E,091440.00,A,A*6D

$GPRMC,091441.00,A,5522.02730,N,01025.86488,E,0.210,,071116,,,A*70

$GPVTG,,T,,M,0.210,N,0.390,K,A*2A

$GPGGA,091441.00,5522.02730,N,01025.86488,E,1,04,2.27,27.2,M,43.1,M,,*6D

$GPGSA,A,3,22,18,08,11,,,,,,,,,3.14,2.27,2.17*06

$GPGSV,2,1,06,08,72,248,49,11,41,277,37,18,26,056,34,22,09,216,41*71

$GPGSV,2,2,06,32,,,37,33,23,210,36*4D

$GPGLL,5522.02730,N,01025.86488,E,091441.00,A,A*6A

$GPRMC,091442.00,A,5522.02749,N,01025.86470,E,0.191,,071116,,,A*70

$GPVTG,,T,,M,0.191,N,0.354,K,A*28

$GPGGA,091442.00,5522.02749,N,01025.86470,E,1,04,2.27,27.1,M,43.1,M,,*64

$GPGSA,A,3,22,18,08,11,,,,,,,,,3.14,2.27,2.17*06

$GPGSV,2,1,06,08,72,248,49,11,41,277,37,18,26,056,34,22,09,216,41*71

$GPGSV,2,2,06,32,,,37,33,23,210,36*4D

$GPGLL,5522.02749,N,01025.86470,E,091442.00,A,A*60

$GPRMC,091443.00,A,5522.02772,N,01025.86455,E,0.102,,071116,,,A*74

$GPVTG,,T,,M,0.102,N,0.188,K,A*21

$GPGGA,091443.00,5522.02772,N,01025.86455,E,1,04,2.27,26.9,M,43.1,M,,*63

$GPGSA,A,3,22,18,08,11,,,,,,,,,3.14,2.27,2.17*06

$GPGSV,2,1,06,08,72,248,49,11,41,277,37,18,26,056,34,22,09,216,41*71

$GPGSV,2,2,06,32,,,41,33,23,210,36*4C

$GPGLL,5522.02772,N,01025.86455,E,091443.00,A,A*6E

$GPRMC,091444.00,A,5522.02799,N,01025.86438,E,0.224,,071116,,,A*7A

$GPVTG,,T,,M,0.224,N,0.414,K,A*26

$GPGGA,091444.00,5522.02799,N,01025.86438,E,1,04,2.27,26.8,M,43.1,M,,*6B

$GPGSA,A,3,22,18,08,11,,,,,,,,,3.14,2.27,2.17*06

$GPGSV,2,1,06,08,72,248,49,11,41,277,38,18,26,056,33,22,09,216,41*79

$GPGSV,2,2,06,32,,,41,33,23,210,35*4F

$GPGLL,5522.02799,N,01025.86438,E,091444.00,A,A*67

$GPRMC,091445.00,A,5522.02832,N,01025.86422,E,0.259,,071116,,,A*74

$GPVTG,,T,,M,0.259,N,0.480,K,A*21

$GPGGA,091445.00,5522.02832,N,01025.86422,E,1,04,2.27,26.7,M,43.1,M,,*60

$GPGSA,A,3,22,18,08,11,,,,,,,,,3.14,2.27,2.17*06

$GPGSV,2,1,06,08,72,248,49,11,41,277,38,18,26,056,33,22,09,216,41*79

$GPGSV,2,2,06,32,,,41,33,23,210,35*4F

$GPGLL,5522.02832,N,01025.86422,E,091445.00,A,A*63

$GPRMC,091446.00,A,5522.02857,N,01025.86420,E,0.254,,071116,,,A*7B

$GPVTG,,T,,M,0.254,N,0.471,K,A*22

$GPGGA,091446.00,5522.02857,N,01025.86420,E,1,04,2.27,26.6,M,43.1,M,,*63

$GPGSA,A,3,22,18,08,11,,,,,,,,,3.14,2.27,2.17*06

$GPGSV,2,1,08,01,,,33,08,72,248,49,11,41,277,37,15,00,015,*4E

$GPGSV,2,2,08,18,26,056,32,22,09,216,41,32,,,41,33,23,210,35*47

$GPGLL,5522.02857,N,01025.86420,E,091446.00,A,A*61

$GPRMC,091447.00,A,5522.02884,N,01025.86410,E,0.117,,071116,,,A*73

$GPVTG,,T,,M,0.117,N,0.217,K,A*20

$GPGGA,091447.00,5522.02884,N,01025.86410,E,1,04,2.27,26.4,M,43.1,M,,*6D

$GPGSA,A,3,22,18,08,11,,,,,,,,,3.14,2.27,2.17*06

$GPGSV,2,1,08,01,,,33,08,72,248,49,11,41,277,38,15,00,015,*41

$GPGSV,2,2,08,18,26,056,32,22,09,216,41,32,,,40,33,23,210,36*45

$GPGLL,5522.02884,N,01025.86410,E,091447.00,A,A*6D

$GPRMC,091448.00,A,5522.02910,N,01025.86408,E,0.252,,071116,,,A*7B

$GPVTG,,T,,M,0.252,N,0.467,K,A*23

$GPGGA,091448.00,5522.02910,N,01025.86408,E,1,04,2.27,26.3,M,43.1,M,,*60

$GPGSA,A,3,22,18,08,11,,,,,,,,,3.14,2.27,2.17*06

$GPGSV,2,1,08,01,,,32,08,72,248,49,11,41,277,37,15,00,015,*4F

$GPGSV,2,2,08,18,26,056,32,22,09,216,41,32,,,40,33,23,210,36*45

$GPGLL,5522.02910,N,01025.86408,E,091448.00,A,A*67

$GPRMC,091449.00,A,5522.02934,N,01025.86413,E,0.219,,071116,,,A*79

$GPVTG,,T,,M,0.219,N,0.406,K,A*2B

$GPGGA,091449.00,5522.02934,N,01025.86413,E,1,04,2.27,26.2,M,43.1,M,,*6C

$GPGSA,A,3,22,18,08,11,,,,,,,,,3.14,2.27,2.17*06

$GPGSV,2,1,08,01,,,31,08,72,248,49,11,41,277,38,15,00,015,*43

$GPGSV,2,2,08,18,26,056,32,22,09,216,41,32,,,40,33,23,210,36*45

$GPGLL,5522.02934,N,01025.86413,E,091449.00,A,A*6A

$GPRMC,091450.00,A,5522.02960,N,01025.86377,E,1.031,,071116,,,A*7C

$GPVTG,,T,,M,1.031,N,1.910,K,A*29

$GPGGA,091450.00,5522.02960,N,01025.86377,E,1,04,2.27,26.1,M,43.1,M,,*63

$GPGSA,A,3,22,18,08,11,,,,,,,,,3.14,2.27,2.17*06

$GPGSV,2,1,08,01,,,31,08,72,248,49,11,41,277,38,15,00,015,*43

$GPGSV,2,2,08,18,26,056,32,22,09,216,41,32,,,40,33,23,210,36*45

$GPGLL,5522.02960,N,01025.86377,E,091450.00,A,A*66

$GPRMC,091451.00,A,5522.02985,N,01025.86334,E,0.860,,071116,,,A*7C

$GPVTG,,T,,M,0.860,N,1.592,K,A*22

$GPGGA,091451.00,5522.02985,N,01025.86334,E,1,04,2.27,25.9,M,43.1,M,,*65

$GPGSA,A,3,22,18,08,11,,,,,,,,,3.14,2.27,2.17*06

$GPGSV,2,1,08,01,,,31,08,72,248,49,11,41,277,38,15,00,015,*43

$GPGSV,2,2,08,18,26,056,31,22,09,216,41,32,,,40,33,23,210,36*46

$GPGLL,5522.02985,N,01025.86334,E,091451.00,A,A*6B

$GPRMC,091452.00,A,5522.02993,N,01025.86325,E,0.263,,071116,,,A*71

$GPVTG,,T,,M,0.263,N,0.487,K,A*2F

$GPGGA,091452.00,5522.02993,N,01025.86325,E,1,04,2.27,25.8,M,43.1,M,,*60

$GPGSA,A,3,22,18,08,11,,,,,,,,,3.14,2.27,2.17*06

$GPGSV,2,1,08,01,,,30,08,72,248,49,11,41,277,38,15,00,015,*42

$GPGSV,2,2,08,18,26,056,31,22,09,216,41,32,,,39,33,23,210,36*48

$GPGLL,5522.02993,N,01025.86325,E,091452.00,A,A*6F

$GPRMC,091453.00,A,5522.03005,N,01025.86309,E,0.341,,071116,,,A*78

$GPVTG,,T,,M,0.341,N,0.632,K,A*22

$GPGGA,091453.00,5522.03005,N,01025.86309,E,1,04,2.27,25.7,M,43.1,M,,*67

$GPGSA,A,3,22,18,08,11,,,,,,,,,3.14,2.27,2.17*06

$GPGSV,2,1,08,01,,,30,08,72,248,49,11,41,277,38,15,00,015,*42

$GPGSV,2,2,08,18,26,056,31,22,09,216,41,32,,,39,33,23,210,36*48

$GPGLL,5522.03005,N,01025.86309,E,091453.00,A,A*67

$GPRMC,091454.00,A,5522.03026,N,01025.86294,E,0.246,,071116,,,A*7D

$GPVTG,,T,,M,0.246,N,0.455,K,A*27

$GPGGA,091454.00,5522.03026,N,01025.86294,E,1,04,2.27,25.6,M,43.1,M,,*65

$GPGSA,A,3,22,18,08,11,,,,,,,,,3.14,2.27,2.17*06

$GPGSV,2,1,08,01,,,30,08,72,248,49,11,41,277,38,15,00,015,*42

$GPGSV,2,2,08,18,26,056,31,22,09,216,41,32,,,38,33,23,210,36*49

$GPGLL,5522.03026,N,01025.86294,E,091454.00,A,A*64

$GPRMC,091455.00,A,5522.03043,N,01025.86301,E,0.210,,071116,,,A*71

$GPVTG,,T,,M,0.210,N,0.388,K,A*23

$GPGGA,091455.00,5522.03043,N,01025.86301,E,1,04,2.27,25.6,M,43.1,M,,*6A

$GPGSA,A,3,22,18,08,11,,,,,,,,,3.14,2.27,2.17*06

$GPGSV,2,1,08,01,,,30,08,72,248,49,11,41,277,38,15,00,015,*42

$GPGSV,2,2,08,18,26,056,30,22,09,216,42,32,,,37,33,23,210,36*44

$GPGLL,5522.03043,N,01025.86301,E,091455.00,A,A*6B

$GPRMC,091456.00,A,5522.03056,N,01025.86302,E,0.111,,071116,,,A*77

$GPVTG,,T,,M,0.111,N,0.205,K,A*25

$GPGGA,091456.00,5522.03056,N,01025.86302,E,1,04,2.27,25.5,M,43.1,M,,*6D

$GPGSA,A,3,22,18,08,11,,,,,,,,,3.14,2.27,2.17*06

$GPGSV,2,1,08,01,,,29,08,72,248,49,11,41,277,38,15,00,015,*4A

$GPGSV,2,2,08,18,26,056,30,22,09,216,42,32,,,36,33,23,210,36*45

$GPGLL,5522.03056,N,01025.86302,E,091456.00,A,A*6F

$GPRMC,091457.00,A,5522.03075,N,01025.86286,E,0.386,,071116,,,A*76

$GPVTG,,T,,M,0.386,N,0.714,K,A*2C

$GPGGA,091457.00,5522.03075,N,01025.86286,E,1,04,2.27,25.4,M,43.1,M,,*61

$GPGSA,A,3,22,18,08,11,,,,,,,,,3.14,2.27,2.17*06

$GPGSV,2,1,08,01,,,29,08,72,248,49,11,41,277,38,15,00,015,*4A

$GPGSV,2,2,08,18,26,056,30,22,09,216,42,32,,,35,33,23,210,36*46

$GPGLL,5522.03075,N,01025.86286,E,091457.00,A,A*62

$GPRMC,091458.00,A,5522.03095,N,01025.86269,E,0.305,,071116,,,A*7D

$GPVTG,,T,,M,0.305,N,0.565,K,A*23

$GPGGA,091458.00,5522.03095,N,01025.86269,E,1,04,2.27,25.3,M,43.1,M,,*66

$GPGSA,A,3,22,18,08,11,,,,,,,,,3.14,2.27,2.17*06

$GPGSV,2,1,08,01,,,29,08,72,248,49,11,41,277,38,15,00,015,*4A

$GPGSV,2,2,08,18,26,056,30,22,09,216,42,32,,,33,33,23,210,36*40

$GPGLL,5522.03095,N,01025.86269,E,091458.00,A,A*62

$GPRMC,091459.00,A,5522.03113,N,01025.86268,E,0.197,,071116,,,A*7B

$GPVTG,,T,,M,0.197,N,0.365,K,A*2C

$GPGGA,091459.00,5522.03113,N,01025.86268,E,1,04,2.27,25.2,M,43.1,M,,*68

$GPGSA,A,3,22,18,08,11,,,,,,,,,3.14,2.27,2.17*06

$GPGSV,2,1,08,01,,,29,08,72,248,49,11,41,277,38,15,00,015,*4A

$GPGSV,2,2,08,18,26,056,31,22,09,216,42,32,,,32,33,23,210,36*40

$GPGLL,5522.03113,N,01025.86268,E,091459.00,A,A*6D

$GPRMC,091500.00,A,5522.03133,N,01025.86267,E,0.318,,071116,,,A*7E

$GPVTG,,T,,M,0.318,N,0.589,K,A*2D

$GPGGA,091500.00,5522.03133,N,01025.86267,E,1,04,2.27,25.0,M,43.1,M,,*6A

$GPGSA,A,3,22,18,08,11,,,,,,,,,3.14,2.27,2.17*06

$GPGSV,2,1,08,01,,,29,08,72,248,49,11,41,277,38,15,00,015,*4A

$GPGSV,2,2,08,18,26,056,31,22,09,216,42,32,,,30,33,23,210,36*42

$GPGLL,5522.03133,N,01025.86267,E,091500.00,A,A*6D

$GPRMC,091501.00,A,5522.03146,N,01025.86288,E,0.237,,071116,,,A*70

$GPVTG,,T,,M,0.237,N,0.440,K,A*25

$GPGGA,091501.00,5522.03146,N,01025.86288,E,1,04,2.27,25.0,M,43.1,M,,*68

$GPGSA,A,3,22,18,08,11,,,,,,,,,3.14,2.27,2.17*06

$GPGSV,2,1,08,01,,,29,08,72,248,49,11,41,277,38,15,00,015,*4A

$GPGSV,2,2,08,18,26,056,31,22,09,216,42,32,,,29,33,23,210,35*49

$GPGLL,5522.03146,N,01025.86288,E,091501.00,A,A*6F

